city,country,lon,lat
Andorra La Vella,Andorra,1.5166667,42.5
Canillo,Andorra,1.6,42.5666667
Encamp,Andorra,1.5833333,42.5333333
La Massana,Andorra,1.5166667,42.55
Les Escaldes,Andorra,1.5333333,42.5
Ordino,Andorra,1.5333333,42.55
Sant Julia De Loria,Andorra,1.5,42.4666667
Abu Dhabi,Emiratos Árabes Unidos,54.366667,24.466667
Dubai,Emiratos Árabes Unidos,55.304717,25.258172
Sharjah,Emiratos Árabes Unidos,55.403304,25.35731
Acin,Afganistán,70.668152,34.082481
Anar Darreh,Afganistán,61.653969,32.758698
Andarab,Afganistán,69.260195,35.633484
Asadabad,Afganistán,71.14697,34.873113
Asmar,Afganistán,71.358087,35.033328
Aybak,Afganistán,68.015512,36.26468
Azrow,Afganistán,69.645728,34.173553
Baglan,Afganistán,68.708286,36.130684
Bagrami,Afganistán,69.274274,34.493761
Baraki Barak,Afganistán,68.948611,33.9675
Cah Ab,Afganistán,69.814644,37.397734
Carikar,Afganistán,69.174011,35.016585
Ciras,Afganistán,65.982341,35.416737
Dawlatabad,Afganistán,64.920713,36.432589
Dawlatabad,Afganistán,66.82066,36.98782
Deh Rawud,Afganistán,65.459659,32.624131
Eskasem,Afganistán,71.570658,36.706932
Farah,Afganistán,62.116383,32.374508
Gardan Diwal,Afganistán,68.260739,34.508977
Gardez,Afganistán,69.225922,33.597439
Gazni,Afganistán,68.4225,33.550833
Geresk,Afganistán,64.570048,31.820894
Herat,Afganistán,62.199673,34.348167
Jalalabad,Afganistán,70.45153,34.426468
Jurm,Afganistán,70.834207,36.864768
Kabul,Afganistán,69.183333,34.516667
Kholm,Afganistán,67.698255,36.697362
Khowst,Afganistán,69.92041,33.339512
Kuhestan,Afganistán,61.197778,34.653889
Kusk,Afganistán,61.952206,33.29565
Lar Gerd,Afganistán,66.664088,35.489361
Mehtar Lam,Afganistán,70.209444,34.671389
Mirabad,Afganistán,61.838304,30.436244
Nahrin,Afganistán,69.13343,36.064904
Nuristan,Afganistán,70.4,34.95
Orgun,Afganistán,69.152798,32.901111
Pagman,Afganistán,68.953333,34.5875
Panjab,Afganistán,67.023273,34.387949
Qandahar,Afganistán,65.710126,31.613323
Qarchi Gak,Afganistán,66.788912,37.039988
Qarqin,Afganistán,66.074375,37.404464
Qunduz,Afganistán,68.857001,36.728955
Rostaq,Afganistán,69.83045,37.126035
Rudbar,Afganistán,62.6,30.15
Sahrak,Afganistán,64.305199,34.107375
Sangin,Afganistán,64.835903,32.072752
Sar-E Pul,Afganistán,65.932487,36.215443
Sharan,Afganistán,68.791667,33.146667
Shibarghan,Afganistán,65.752904,36.667567
Sindand,Afganistán,62.1474,33.302944
Tagab,Afganistán,69.64917,34.855007
Taloqan,Afganistán,69.533559,36.734133
Taywarah,Afganistán,64.421156,33.521176
Tir Pol,Afganistán,61.268951,34.594307
Tokzar,Afganistán,66.42132,35.948308
Uruzgan,Afganistán,66.632534,32.927751
Zaranj,Afganistán,61.883333,30.966667
All Saints,Antigua y Barbuda,-61.8,17.05
Carlisle,Antigua y Barbuda,-61.8,17.1333333
Codrington,Antigua y Barbuda,-61.8333333,17.6333333
Freetown,Antigua y Barbuda,-61.7,17.05
Liberta,Antigua y Barbuda,-61.7833333,17.0333333
Old Road,Antigua y Barbuda,-61.8333333,17.0166667
Parham,Antigua y Barbuda,-61.7666667,17.0833333
Swetes,Antigua y Barbuda,-61.8,17.05
The Valley,Anguila,-63.05,18.2166667
Bajram Curri,Albania,20.0730556,42.3572222
Ballsh,Albania,19.7347222,40.5988889
Berat,Albania,19.9522222,40.7058333
Bilisht,Albania,20.99,40.6275
Bulqize,Albania,20.2219444,41.4916667
Burrel,Albania,20.0088889,41.6102778
Cerrik,Albania,19.9758333,41.0316667
Corovode,Albania,20.2272222,40.5041667
Delvine,Albania,20.0977778,39.9511111
Durres,Albania,19.4413889,41.3230556
Elbasan,Albania,20.0822222,41.1125
Erseke,Albania,20.6788889,40.3377778
Fier,Albania,19.5561111,40.7238889
Fierze,Albania,20.0269444,42.2647222
Fierze,Albania,20.0169444,42.2605556
Fushe-Arrez,Albania,20.0166667,42.0622222
Fushe-Kruje,Albania,19.7177778,41.4783333
Gjirokaster,Albania,20.1388889,40.0758333
Gramsh,Albania,20.1844444,40.8697222
Himare,Albania,19.7447222,40.1016667
Kamze,Albania,19.7602778,41.3816667
Kavaje,Albania,19.5569444,41.1855556
Kelcyre,Albania,20.1894444,40.3130556
Kerrabe,Albania,19.9713889,41.2155556
Klos,Albania,20.1080556,41.4844444
Konispol,Albania,20.1813889,39.6588889
Koplik,Albania,19.4363889,42.2136111
Korce,Albania,20.7808333,40.6186111
Kraste,Albania,20.205,41.4225
Kruje,Albania,19.7927778,41.5091667
Kucove,Albania,19.9166667,40.8002778
Kukes,Albania,20.4219444,42.0769444
Kurbnesh,Albania,20.0836111,41.7797222
Lac,Albania,19.7130556,41.6355556
Leskovik,Albania,20.5972222,40.1513889
Lezhe,Albania,19.6436111,41.7836111
Libohove,Albania,20.2630556,40.0311111
Librazhd,Albania,20.315,41.1794444
Lushnje,Albania,19.705,40.9419444
Maliq,Albania,20.6997222,40.7058333
Mamurras,Albania,19.6922222,41.5775
Memaliaj,Albania,19.9791667,40.3458333
Milot,Albania,19.7244444,41.6802778
Orikum,Albania,19.4713889,40.3252778
Patos,Albania,19.6194444,40.6833333
Peqin,Albania,19.7511111,41.0461111
Permet,Albania,20.3516667,40.2336111
Perrenjas,Albania,20.5488889,41.0730556
Peshkopi,Albania,20.4288889,41.685
Pogradec,Albania,20.6525,40.9025
Polican,Albania,20.0980556,40.6122222
Puke,Albania,19.8997222,42.0444444
Roskovec,Albania,19.7022222,40.7375
Rreshen,Albania,19.8755556,41.7675
Rrogozhine,Albania,19.6652778,41.0763889
Rubik,Albania,19.7861111,41.7744444
Sarande,Albania,20.0052778,39.8755556
Selenice,Albania,19.6358333,40.5305556
Shengjin,Albania,19.5938889,41.8136111
Shijak,Albania,19.5672222,41.3455556
Shkoder,Albania,19.5130556,42.0675
Tepelene,Albania,20.0191667,40.2958333
Tirana,Albania,19.8188889,41.3275
Ulze,Albania,19.8933333,41.6827778
Vlore,Albania,19.4897222,40.4666667
Vore,Albania,19.655,41.3908333
Abovyan,Armenia,44.5475,40.0488889
Abovyan,Armenia,44.6244444,40.2691667
Agarakadzor,Armenia,45.3455556,39.7363889
Agarak,Armenia,44.2847222,40.3077778
Agarak,Armenia,44.4675,41.0105556
Agarak,Armenia,46.5472222,39.2038889
Aghavnadzor,Armenia,44.6913889,40.5841667
Aghavnadzor,Armenia,45.2280556,39.7836111
Aghavnatun,Armenia,44.2513889,40.2336111
Akhuryan,Armenia,43.8963889,40.7813889
Aknalich,Armenia,44.1483333,40.1430556
Aknashen,Armenia,44.2861111,40.0958333
Alaverdi,Armenia,44.6519444,41.1305556
Amasia,Armenia,43.7813889,40.9466667
Amberd,Armenia,44.2727778,40.2416667
Anushavan,Armenia,43.9822222,40.6419444
Apaga,Armenia,44.2511111,40.0961111
Aparan,Armenia,44.3536111,40.5961111
Aragats,Armenia,43.6580556,40.3330556
Aragats,Armenia,44.2327778,40.2183333
Aragyukh,Armenia,44.5436111,40.4025
Aramus,Armenia,44.6630556,40.2511111
Arapi,Armenia,43.8005556,40.7797222
Ararat,Armenia,44.7144444,39.8094444
Arazap,Armenia,44.1458333,40.0427778
Archis,Armenia,44.8725,41.1641667
Areni,Armenia,45.1838889,39.7208333
Arevabuyr,Armenia,44.4688889,40.0361111
Arevashat,Armenia,44.3708333,40.1416667
Arevashogh,Armenia,44.2727778,40.8613889
Arevik,Armenia,44.0969444,40.1005556
Arevik,Armenia,43.8927778,40.7361111
Arevshat,Armenia,44.5416667,40.0391667
Arevshat,Armenia,44.0444444,40.6486111
Argavand,Armenia,44.44,40.1580556
Argavand,Armenia,44.0952778,40.0608333
Argel,Armenia,44.5994444,40.3794444
Armash,Armenia,44.8083333,39.7666667
Armavir,Armenia,44.0483333,40.0897222
Arshaluys,Armenia,44.2141667,40.1688889
Artashat,Armenia,44.5505556,39.9538889
Arteni,Armenia,43.7541667,40.2983333
Artimet,Armenia,44.2663889,40.1513889
Artsvaberd,Armenia,45.4711111,40.8336111
Artsvanist,Armenia,45.5022222,40.1544444
Arzakan,Armenia,44.6063889,40.4494444
Arzni,Armenia,44.5958333,40.2963889
Ashnak,Armenia,43.9166667,40.3275
Ashtarak,Armenia,44.3591667,40.3016667
Astghadzor,Armenia,45.3566667,40.1238889
Avshar,Armenia,44.6836111,39.8405556
Aygavan,Armenia,44.6702778,39.8647222
Aygedzor,Armenia,46.4152778,39.4627778
Aygehovit,Armenia,45.2519444,40.9744444
Aygek,Armenia,44.3833333,40.1886111
Aygepat,Armenia,44.6,39.95
Aygeshat,Armenia,44.2866667,40.2355556
Aygeshat,Armenia,44.0666667,40.0666667
Aygestan,Armenia,44.5575,40.0030556
Aygezard,Armenia,44.6088889,39.9458333
Aygut,Armenia,45.1730556,40.6841667
Ayrum,Armenia,44.8925,41.195
Ayrum,Armenia,44.8191667,41.1716667
Azatamut,Armenia,45.1980556,40.9758333
Azatan,Armenia,43.8205556,40.7238889
Azatavan,Armenia,44.5,39.9833333
Azatavan,Armenia,44.0666667,40.1333333
Baghramyan,Armenia,43.8494444,40.1908333
Bagratashen,Armenia,44.8211111,41.2458333
Balahovit,Armenia,44.6038889,40.2536111
Bambakashat,Armenia,44.0122222,40.1144444
Bardzrashen,Armenia,44.5786111,40.0852778
Bazum,Armenia,44.4455556,40.8680556
Berdavan,Armenia,45.0033333,41.2027778
Berd,Armenia,45.3916667,40.8808333
Brnakot,Armenia,45.9730556,39.4969444
Brun,Armenia,46.3030556,39.5338889
Buzhakan,Armenia,44.5205556,40.4552778
Byurakan,Armenia,44.2736111,40.3413889
Byuravan,Armenia,44.5186111,40.0161111
Byureghavan,Armenia,44.5936111,40.3147222
Chambarak,Armenia,45.3475,40.5952778
Chochkan,Armenia,44.8313889,41.1861111
Dalar,Armenia,44.5363889,39.9669444
Dalarik,Armenia,43.8602778,40.2183333
Darakert,Armenia,44.4138889,40.1058333
Darpas,Armenia,44.4233333,40.8380556
Dashtavan,Armenia,44.3905556,40.1016667
Ddmashen,Armenia,44.8122222,40.5719444
Dilijan,Armenia,44.8630556,40.7408333
Dimitrov,Armenia,44.4880556,40.0080556
Doghs,Armenia,44.2716667,40.2227778
Drakhtik,Armenia,45.2319444,40.5688889
Dsegh,Armenia,44.6516667,40.9633333
Dvin,Armenia,44.5852778,40.02
Dzitankov,Armenia,43.8133333,40.5155556
Dzoraghbyur,Armenia,44.6430556,40.205
Dzoragyukh,Armenia,45.175,40.1752778
Fantan,Armenia,44.685,40.3941667
Fioletovo,Armenia,44.7138889,40.7247222
Gagarin,Armenia,44.8577778,40.5369444
Gandzak,Armenia,45.1113889,40.3147222
Garni,Armenia,44.7230556,40.1194444
Gavar,Armenia,45.1266667,40.3588889
Gay,Armenia,44.3055556,40.0838889
Geghamasar,Armenia,45.68,40.3116667
Geghamavan,Armenia,44.8827778,40.5619444
Geghanist,Armenia,44.4344444,40.1497222
Getahovit,Armenia,45.1313889,40.8958333
Getashen,Armenia,43.9447222,40.0433333
Getazat,Armenia,44.5638889,40.0380556
Ghukasavan,Armenia,44.4177778,40.1261111
Gladzor,Armenia,45.3477778,39.7783333
Gogaran,Armenia,44.1991667,40.8955556
Goris,Armenia,46.3386111,39.5077778
Gosh,Armenia,45.0033333,40.7225
Griboyedov,Armenia,44.2716667,40.1130556
Gyulagarak,Armenia,44.4713889,40.9697222
Gyumri,Armenia,43.8475,40.7894444
Haghartsin,Armenia,44.9625,40.7780556
Hayanist,Armenia,44.3775,40.1197222
Haykashen,Armenia,44.3069444,40.0727778
Haykavan,Armenia,43.77,40.7558333
Hnaberd,Armenia,44.1444444,40.6427778
Hoktember,Armenia,44.0138889,40.1361111
Horom,Armenia,43.8822222,40.6541667
Hovtashat,Armenia,44.3427778,40.1019444
Hovtashen,Armenia,44.45,40.0244444
Hrazdan,Armenia,44.7547222,40.5016667
Ijevan,Armenia,45.1491667,40.8755556
Janfida,Armenia,44.0208333,40.0455556
Jermuk,Armenia,45.6722222,39.8416667
Jrahovit,Armenia,44.4736111,40.0452778
Jrashen,Armenia,44.1972222,40.7875
Jrashen,Armenia,44.5133333,40.0547222
Kamaris,Armenia,44.6938889,40.2358333
Kamo,Armenia,43.9483333,40.8280556
Kanakeravan,Armenia,44.5366667,40.2472222
Kapan,Armenia,46.415,39.2011111
Kaputan,Armenia,44.6938889,40.3244444
Karbi,Armenia,44.3777778,40.3338889
Karchaghbyur,Armenia,45.5722222,40.1638889
Kasakh,Armenia,44.4166667,40.5333333
Khashtarak,Armenia,45.1797222,40.9386111
Khndzoresk,Armenia,46.4336111,39.5122222
Kosh,Armenia,44.16,40.3072222
Lanjaghbyur,Armenia,45.1444444,40.2730556
Lchashen,Armenia,44.9308333,40.5202778
Lenughi,Armenia,43.9652778,40.1238889
Lernakert,Armenia,43.9361111,40.5669444
Lernanist,Armenia,44.7980556,40.4675
Lernantsk,Armenia,44.2783333,40.7955556
Lernapat,Armenia,44.3972222,40.82
Lernavan,Armenia,44.1844444,40.7883333
Lorut,Armenia,44.7725,40.9388889
Lukashin,Armenia,44.0186111,40.1758333
Madina,Armenia,45.2511111,40.0802778
Maisyan,Armenia,43.8294444,40.8530556
Malishka,Armenia,45.3875,39.7369444
Maralik,Armenia,43.8669444,40.5722222
Margahovit,Armenia,44.6875,40.7380556
Margara,Armenia,44.1738889,40.0336111
Marmarashen,Armenia,44.4711111,40.0575
Marmashen,Armenia,43.7719444,40.8375
Martuni,Armenia,45.3063889,40.1447222
Masis,Armenia,44.4858333,40.0138889
Mayakovski,Armenia,44.6383333,40.2522222
Meghradzor,Armenia,44.6522222,40.6147222
Meghrashen,Armenia,43.9486111,40.6758333
Meghri,Armenia,46.2383333,38.9022222
Merdzavan,Armenia,44.3991667,40.1816667
Metsamor,Armenia,44.2891667,40.0713889
Metsavan,Armenia,44.2288889,41.2016667
Mets Masrik,Armenia,45.7694444,40.2186111
Mets Parni,Armenia,44.1091667,40.8372222
Mosesgegh,Armenia,45.4913889,40.9063889
Mrganush,Armenia,44.5586111,40.0286111
Mrgashat,Armenia,44.0705556,40.1297222
Mrgashen,Armenia,44.5422222,40.285
Mrgavan,Armenia,44.5333333,39.9661111
Mrgavet,Armenia,44.4827778,40.0283333
Musaler,Armenia,44.3777778,40.1544444
Musayelyan,Armenia,43.9908333,40.7652778
Myasnikyan,Armenia,43.9063889,40.1775
Nalbandyan,Armenia,43.9855556,40.0677778
Navur,Armenia,45.3175,40.8613889
Nizami,Armenia,44.4041667,40.0913889
Norakert,Armenia,44.3466667,40.1922222
Noramarg,Armenia,44.4244444,40.0236111
Nor Armavir,Armenia,43.99,40.0866667
Norashen,Armenia,44.5947222,40.0041667
Norashen,Armenia,44.3272222,41.1880556
Noratus,Armenia,45.1783333,40.3822222
Nor Geghi,Armenia,44.5797222,40.3211111
Nor Gyukh,Armenia,44.6563889,40.2666667
Nor Yerznka,Armenia,44.4047222,40.3133333
Noyakert,Armenia,44.6669444,39.8166667
Noyemberyan,Armenia,44.9936111,41.1725
Nshavan,Armenia,44.5252778,40.0263889
Odzun,Armenia,44.6113889,41.0538889
Oshakan,Armenia,44.2691667,40.2705556
Paravakar,Armenia,45.3991667,40.9805556
Pemzashen,Armenia,43.94,40.5933333
Pokr Mantash,Armenia,44.05,40.65
Proshyan,Armenia,44.415,40.2480556
Pshatavan,Armenia,44.0675,40.0405556
Ptghni,Armenia,44.585,40.2566667
Ranchpar,Armenia,44.3702778,40.0252778
Rind,Armenia,45.18,39.7597222
Samaghar,Armenia,44.2422222,40.1852778
Saramech,Armenia,44.2191667,40.7725
Saratak,Armenia,43.8663889,40.67
Sarigyukh,Armenia,45.1458333,41.0563889
Sarukhan,Armenia,45.1341667,40.2891667
Sasunik,Armenia,44.3380556,40.2472222
Sevan,Armenia,44.9536111,40.555
Shaghat,Armenia,45.9122222,39.5616667
Shahumyan,Armenia,44.5783333,39.9308333
Shahumyan,Armenia,44.5316667,40.7883333
Shatin,Armenia,45.3016667,39.8333333
Shenavan,Armenia,44.3825,40.4861111
Shenavan,Armenia,43.9333333,40.05
Shinuhayr,Armenia,46.3155556,39.4341667
Shirakamut,Armenia,44.1527778,40.8605556
Shirak,Armenia,43.9213889,40.8480556
Shnogh,Armenia,44.8377778,41.1477778
Sisavan,Armenia,44.6666667,39.9
Sisian,Armenia,45.9730556,39.4627778
Sis,Armenia,44.3863889,40.0586111
Solak,Armenia,44.7086111,40.4636111
Sovetakan,Armenia,44.0552778,40.1133333
Spandaryan,Armenia,44.0188889,40.665
Spitak,Armenia,44.2783333,40.7955556
Surenavan,Armenia,44.8,39.75
Talin,Armenia,43.8588889,40.3369444
Tandzut,Armenia,44.0886111,40.0772222
Taronik,Armenia,44.1991667,40.1330556
Tashir,Armenia,44.2819444,41.1244444
Tazagyukh,Armenia,45.1913889,40.1416667
Tegh,Armenia,46.4758333,39.5547222
Tsaghkaber,Armenia,44.1072222,40.7986111
Tsaghkadzor,Armenia,44.7113889,40.5386111
Tsaghkahovit,Armenia,44.2230556,40.6361111
Tsiatsan,Armenia,44.2666667,40.1869444
Tsovagyugh,Armenia,44.9522222,40.6330556
Tsovak,Armenia,45.635,40.1819444
Tsovazard,Armenia,45.0375,40.4769444
Tsovinar,Armenia,45.4538889,40.1608333
Tumanyan,Armenia,44.6516667,40.9633333
Urut,Armenia,44.3969444,41.0711111
Ushi,Armenia,44.3686111,40.3536111
Vagharshapat,Armenia,44.2925,40.1727778
Vaghashen,Armenia,45.3291667,40.1377778
Vahagni,Armenia,44.6069444,40.9080556
Vahan,Armenia,45.3955556,40.57
Vanadzor,Armenia,44.4883333,40.8127778
Vardablur,Armenia,44.4666667,40.95
Vardadzor,Armenia,45.1875,40.1916667
Vardenik,Armenia,45.4363889,40.135
Vardenis,Armenia,45.7283333,40.1805556
Varser,Armenia,44.9111111,40.5561111
Vedi,Armenia,44.7277778,39.9105556
Verin Artashat,Armenia,44.585,40.0005556
Verin Dvin,Armenia,44.5908333,40.0252778
Verin Getashen,Armenia,45.2486111,40.1327778
Verishen,Armenia,46.3119444,39.5358333
Vernashen,Armenia,45.3633333,39.7938889
Voskehask,Armenia,43.7758333,40.7383333
Voskehat,Armenia,44.3291667,40.1413889
Voskevan,Armenia,45.0652778,41.1191667
Voskevaz,Armenia,44.295,40.2797222
Vostan,Armenia,44.5591667,39.9588889
Yeghegnavan,Armenia,44.6372222,39.8277778
Yeghegnut,Armenia,44.1625,40.0902778
Yeghegnut,Armenia,44.6325,40.9041667
Yeghvard,Armenia,44.4813889,40.3216667
Yeraskhahun,Armenia,44.2158333,40.0722222
Yerazgavors,Armenia,43.75,40.7
Yerevan,Armenia,44.5136111,40.1811111
Zangakatun,Armenia,45.0511111,39.8094444
Zaritap,Armenia,45.5086111,39.6372222
Zar,Armenia,44.7361111,40.2611111
Zhdanov,Armenia,44.0883333,40.1616667
Zorak,Armenia,44.3919444,40.0925
Zoravan,Armenia,44.5230556,40.3569444
Zovaber,Armenia,44.7863889,40.5736111
Zovuni,Armenia,44.4288889,40.5108333
Barber,Antillas Neerlandesas,-69.0666667,12.2833333
Golden Rock,Antillas Neerlandesas,-62.9833333,17.4833333
Hato,Antillas Neerlandesas,-68.2833333,12.1833333
Kralendijk,Antillas Neerlandesas,-68.2666667,12.15
Lagun,Antillas Neerlandesas,-69.1666667,12.3166667
Nieuwpoort,Antillas Neerlandesas,-68.8166667,12.05
Oranjestad,Antillas Neerlandesas,-62.9833333,17.4666667
Rincon,Antillas Neerlandesas,-68.3333333,12.2333333
Sint Michiel,Antillas Neerlandesas,-68.9833333,12.1333333
Soto,Antillas Neerlandesas,-69.1,12.2666667
The Bottom,Antillas Neerlandesas,-63.25,17.6333333
Westpunt,Antillas Neerlandesas,-69.1666667,12.3666667
Willemstad,Antillas Neerlandesas,-68.9166667,12.1
Windward Side,Antillas Neerlandesas,-63.2333333,17.6333333
Benguela,Angola,13.407222,-12.578333
Caala,Angola,15.560556,-12.8525
Cabinda,Angola,12.2,-5.55
Caconda,Angola,15.066667,-13.733333
Caluquembe,Angola,14.683333,-13.783333
Camabatela,Angola,15.37495,-8.18812
Camacupa,Angola,17.483333,-12.016667
Catabola,Angola,17.283333,-12.15
Catumbela,Angola,13.547222,-12.431389
Caxito,Angola,13.664167,-8.58
Cazaje,Angola,20.701483,-11.067147
Chissamba,Angola,17.333333,-12.166667
Huambo,Angola,15.739167,-12.776111
Kibala,Angola,14.979949,-10.73366
Kuito,Angola,16.933333,-12.383333
Leua,Angola,20.45,-11.65
Lobito,Angola,13.599722,-12.319722
Longonjo,Angola,15.253333,-12.906667
Luanda,Angola,13.233174,-8.836804
Luau,Angola,22.22466,-10.707273
Lubango,Angola,13.5,-14.916667
Lucapa,Angola,20.744655,-8.419151
Luena,Angola,19.916667,-11.783333
Lumeje,Angola,20.783333,-11.55
Malanje,Angola,16.345278,-9.544722
Menongue,Angola,17.688224,-14.661639
Namibe,Angola,12.152222,-15.196111
Ondjiva,Angola,15.733333,-17.066667
Saurimo,Angola,20.391553,-9.66078
Soyo,Angola,12.368935,-6.134903
Sumbe,Angola,13.843713,-11.206048
Uige,Angola,15.056621,-7.613282
Alta Gracia,Argentina,-64.428259,-31.652925
Azul,Argentina,-59.858539,-36.776976
Bahia Blanca,Argentina,-62.272432,-38.719595
Bell Ville,Argentina,-62.68873,-32.625906
Campana,Argentina,-58.95914,-34.168742
Catamarca,Argentina,-65.785239,-28.469574
Chacabuco,Argentina,-60.473889,-34.641667
Chivilcoy,Argentina,-60.016667,-34.895661
Comodoro Rivadavia,Argentina,-67.496558,-45.864135
Concepcion Del Uruguay,Argentina,-58.237217,-32.482493
Concordia,Argentina,-58.02089,-31.392959
Cordoba,Argentina,-64.181052,-31.413496
Corrientes,Argentina,-58.834099,-27.480596
Dolores,Argentina,-57.679185,-36.313215
Eldorado,Argentina,-54.624784,-26.404841
Formosa,Argentina,-58.178139,-26.177534
General Pico,Argentina,-63.756815,-35.656622
General Roca,Argentina,-67.573711,-39.02797
Goya,Argentina,-59.262564,-29.14003
Gualeguaychu,Argentina,-58.51722,-33.009375
Gualeguay,Argentina,-59.309657,-33.141559
Jujuy,Argentina,-65.297116,-24.194565
Junin,Argentina,-60.943318,-34.583816
La Plata,Argentina,-57.954533,-34.921454
La Rioja,Argentina,-66.850668,-29.411048
Libertador General San Martin,Argentina,-64.787574,-23.806443
Lincoln,Argentina,-61.530197,-34.866494
Lujan,Argentina,-59.105,-34.570278
Lujan,Argentina,-68.877823,-33.035471
Mar Del Plata,Argentina,-57.557539,-38.002278
Mendoza,Argentina,-68.827171,-32.890845
Mercedes,Argentina,-59.430676,-34.651455
Mercedes,Argentina,-58.078951,-29.181858
Mercedes,Argentina,-65.461405,-33.674359
Necochea,Argentina,-58.736753,-38.547259
Neuquen,Argentina,-68.059102,-38.951606
Nueve De Julio,Argentina,-60.883131,-35.444374
Obera,Argentina,-55.11994,-27.487059
Olavarria,Argentina,-60.32254,-36.892715
Parana,Argentina,-60.523802,-31.731967
Pergamino,Argentina,-60.573568,-33.889949
Posadas,Argentina,-55.896078,-27.367077
Presidencia Roque Saenz Pena,Argentina,-60.438761,-26.785221
Puerto Madryn,Argentina,-65.038513,-42.769201
Punta Alta,Argentina,-62.073589,-38.875875
Rafaela,Argentina,-61.486696,-31.250332
Rawson,Argentina,-65.10228,-43.300158
Reconquista,Argentina,-59.65,-29.15
Resistencia,Argentina,-58.983886,-27.46056
Rio Cuarto,Argentina,-64.349918,-33.130671
Rio Gallegos,Argentina,-69.218127,-51.622613
Rio Tercero,Argentina,-64.114055,-32.173008
Rivadavia,Argentina,-68.46081,-33.190509
Rosario,Argentina,-60.639317,-32.946818
Salta,Argentina,-65.411664,-24.785896
San Carlos De Bariloche,Argentina,-71.301369,-41.140293
San Francisco,Argentina,-62.082656,-31.427971
San Juan,Argentina,-68.536389,-31.5375
San Lorenzo,Argentina,-58.767331,-28.133061
San Luis,Argentina,-66.335627,-33.295012
San Martin,Argentina,-68.468138,-33.081031
San Nicolas,Argentina,-60.225233,-33.335784
San Pedro,Argentina,-59.666635,-33.679127
San Pedro,Argentina,-64.866141,-24.231266
San Rafael,Argentina,-68.330066,-34.617717
San Ramon De La Nueva Oran,Argentina,-64.324645,-23.13398
Santa Fe,Argentina,-60.701036,-31.629484
Santa Rosa,Argentina,-64.283333,-36.616667
Santiago Del Estero,Argentina,-64.261489,-27.795112
San Vicente,Argentina,-58.376169,-34.982645
Tandil,Argentina,-59.133164,-37.321674
Tartagal,Argentina,-63.801314,-22.516365
Trelew,Argentina,-65.313295,-43.250075
Tres Arroyos,Argentina,-60.279781,-38.373939
Tucuman,Argentina,-65.2226,-26.824144
Ushuaia,Argentina,-68.3,-54.8
Veinticinco De Mayo,Argentina,-60.172707,-35.432303
Venado Tuerto,Argentina,-61.968845,-33.745564
Victoria,Argentina,-60.153907,-32.619888
Viedma,Argentina,-62.996676,-40.813452
Villa Carlos Paz,Argentina,-64.497778,-31.424138
Villa Constitucion,Argentina,-60.329699,-33.227778
Villa Maria,Argentina,-63.240161,-32.407514
Zarate,Argentina,-59.028585,-34.098142
Absam,Austria,11.5,47.3
Abtenau,Austria,13.35,47.55
Altach,Austria,9.65,47.35
Althofen,Austria,14.233333,47.15
Altmunster,Austria,13.75,47.9
Amstetten,Austria,14.866667,48.116667
Anif,Austria,13.066667,47.75
Ansfelden,Austria,14.283333,48.2
Arnoldstein,Austria,13.71,46.546111
Asten,Austria,14.4,48.216667
Axams,Austria,11.3,47.233333
Bad Aussee,Austria,13.783333,47.6
Baden,Austria,16.233333,48.016667
Bad Goisern,Austria,13.616667,47.633333
Bad Hall,Austria,14.2,48.033333
Bad Hofgastein,Austria,13.1,47.166667
Bad Ischl,Austria,13.616667,47.716667
Bad Sankt Leonhard,Austria,14.791667,46.962778
Bad Voslau,Austria,16.2,47.966667
Barnbach,Austria,16.05,46.983333
Bergheim,Austria,13.033333,47.833333
Berndorf,Austria,16.1,47.95
Bischofshofen,Austria,13.216667,47.416667
Bludenz,Austria,9.816667,47.149722
Braunau,Austria,13.033333,48.266667
Bregenz,Austria,9.766667,47.5
Bruck An Der Leitha,Austria,16.766667,48.016667
Bruck An Der Mur,Austria,15.283333,47.416667
Deutschlandsberg,Austria,15.222222,46.815278
Deutsch-Wagram,Austria,16.566667,48.299722
Dornbirn,Austria,9.733056,47.416667
Ebbs,Austria,12.216667,47.633333
Ebensee,Austria,13.766667,47.8
Ebenthal,Austria,14.364167,46.608056
Eberndorf,Austria,14.643611,46.591389
Ebreichsdorf,Austria,16.4,47.95
Eisenerz,Austria,14.883333,47.533333
Eisenstadt,Austria,16.516667,47.85
Engerwitzdorf,Austria,14.45,48.35
Enns,Austria,14.466667,48.2
Feldbach,Austria,15.888333,46.953056
Feldkirchen An Der Donau,Austria,14.05,48.35
Feldkirchen,Austria,14.1,46.716667
Feldkirch,Austria,9.6,47.233056
Ferlach,Austria,14.301944,46.526944
Finkenstein,Austria,13.865278,46.565556
Fohnsdorf,Austria,14.683333,47.2
Frankenburg,Austria,13.483333,48.066667
Freistadt,Austria,14.5,48.5
Friesach,Austria,14.405833,46.955278
Frohnleiten,Austria,15.316667,47.266667
Fugen,Austria,11.85,47.35
Furstenfeld,Austria,16.083333,47.05
Gallneukirchen,Austria,14.416667,48.35
Ganserndorf,Austria,16.733333,48.35
Garsten,Austria,14.4,48.016667
Gleisdorf,Austria,15.716667,47.1
Gloggnitz,Austria,15.933333,47.666667
Gmunden,Austria,13.8,47.916667
Gmund,Austria,14.983333,48.766667
Gotzis,Austria,9.633056,47.333056
Gratkorn,Austria,15.35,47.133333
Graz,Austria,15.45,47.066667
Grieskirchen,Austria,13.833333,48.233333
Grodig,Austria,13.033333,47.733333
Guntramsdorf,Austria,16.3,48.033333
Haag,Austria,15.5,48.15
Hainburg,Austria,16.933333,48.15
Hallein,Austria,13.1,47.683333
Hall,Austria,14.45,47.6
Hard,Austria,9.683056,47.483056
Heidenreichstein,Austria,15.116667,48.866667
Hermagor,Austria,13.367222,46.627222
Herzogenburg,Austria,15.683333,48.266667
Himberg,Austria,16.433333,48.083333
Hochst,Austria,9.633056,47.466667
Hohenems,Austria,9.683056,47.366667
Hollabrunn,Austria,16.083333,48.55
Hopfgarten,Austria,12.166667,47.45
Horbranz,Austria,9.75,47.55
Horn,Austria,15.65,48.65
Horsching,Austria,14.183333,48.233333
Imst,Austria,10.733333,47.233333
Innsbruck,Austria,11.4,47.266667
Jenbach,Austria,11.783333,47.4
Jennersdorf,Austria,16.146667,46.939167
Judenburg,Austria,14.666667,47.166667
Kapfenberg,Austria,15.3,47.433333
Kindberg,Austria,15.45,47.5
Kirchbichl,Austria,12.083333,47.516667
Kitzbuhel,Austria,12.383333,47.45
Klagenfurt,Austria,14.305278,46.624722
Klosterneuburg,Austria,16.316667,48.3
Knittelfeld,Austria,14.816667,47.216667
Koflach,Austria,15.083333,47.066667
Korneuburg,Austria,16.333333,48.35
Kottingbrunn,Austria,16.216667,47.95
Krems,Austria,15.6,48.416667
Kremsmunster,Austria,14.133333,48.05
Krieglach,Austria,15.55,47.533333
Kuchl,Austria,13.15,47.616667
Kufstein,Austria,12.166667,47.583333
Laakirchen,Austria,13.816667,47.966667
Laa,Austria,16.383333,48.716667
Landeck,Austria,10.566667,47.133333
Langenlois,Austria,15.666667,48.466667
Langenzersdorf,Austria,16.35,48.3
Lauterach,Austria,9.733056,47.483056
Leibnitz,Austria,15.541667,46.781667
Lenzing,Austria,13.616667,47.966667
Leoben,Austria,15.1,47.383333
Leonding,Austria,14.25,48.266667
Lienz,Austria,12.759722,46.831111
Liezen,Austria,14.233333,47.566667
Linz,Austria,14.3,48.3
Lochau,Austria,9.75,47.533333
Lustenau,Austria,9.65,47.433056
Marchtrenk,Austria,14.116667,48.183333
Maria Enzersdorf,Austria,16.283333,48.1
Matrei,Austria,12.533333,47
Mattersburg,Austria,16.4,47.733333
Melk,Austria,15.316667,48.216667
Micheldorf,Austria,14.133333,47.85
Mistelbach,Austria,16.576667,48.57
Mittelberg,Austria,9.65,47.2
Mittersill,Austria,12.483333,47.266667
Modling,Austria,16.283333,48.083333
Moosburg,Austria,14.174722,46.6575
Murzzuschlag,Austria,15.683333,47.6
Nenzing,Austria,9.7,47.183056
Neudorfl,Austria,16.283333,47.783333
Neulengbach,Austria,15.9,48.2
Neunkirchen,Austria,16.083333,47.716667
Neusiedl Am See,Austria,16.833333,47.933333
Nuziders,Austria,9.8,47.166667
Oberndorf,Austria,13.333333,48.25
Oberwart,Austria,16.2,47.283333
Pasching,Austria,14.2,48.25
Paternion,Austria,13.636111,46.714167
Perchtoldsdorf,Austria,16.266667,48.116667
Perg,Austria,14.633333,48.25
Pinkafeld,Austria,16.116667,47.366667
Pottendorf,Austria,16.383333,47.9
Poysdorf,Austria,16.633333,48.666667
Pressbaum,Austria,16.083333,48.183333
Purgstall,Austria,15.133333,48.05
Purkersdorf,Austria,16.166667,48.2
Radstadt,Austria,13.45,47.383333
Rankweil,Austria,9.65,47.283056
Reichenau,Austria,15.833333,47.7
Retz,Austria,15.95,48.75
Reutte,Austria,10.716667,47.483333
Ried,Austria,13.5,48.216667
Rottenmann,Austria,14.35,47.516667
Rum,Austria,11.45,47.283333
Rust,Austria,16.666667,47.8
Saalfelden,Austria,12.85,47.416667
Salzburg,Austria,13.033333,47.8
Sankt Andra,Austria,14.823611,46.766111
Sankt Florian,Austria,13.133333,48.166667
Sankt Georgen,Austria,13.483333,47.933333
Sankt Jakob,Austria,14.057222,46.547778
Sankt Johann Im Pongau,Austria,13.2,47.35
Sankt Polten,Austria,15.633333,48.2
Sankt Valentin,Austria,14.516667,48.166667
Sankt Veit,Austria,14.360278,46.768056
Scharding,Austria,13.433333,48.45
Scharnstein,Austria,13.95,47.9
Schladming,Austria,13.683333,47.383333
Schrems,Austria,15.066667,48.783333
Schruns,Austria,9.916667,47.066667
Schwaz,Austria,11.7,47.333333
Schwechat,Austria,16.466667,48.133333
Seeboden,Austria,13.495,46.821944
Seekirchen,Austria,13.133333,47.9
Seewalchen,Austria,13.583333,47.95
Sieghartskirchen,Austria,16,48.25
Sierning,Austria,14.3,48.033333
Spittal,Austria,13.5,46.8
Steyregg,Austria,14.366667,48.283333
Steyr,Austria,14.416667,48.05
Stockerau,Austria,16.216667,48.383333
Strasshof,Austria,16.666667,48.316667
Tamsweg,Austria,13.8,47.133333
Telfs,Austria,11.066667,47.3
Ternitz,Austria,16.033333,47.716667
Thalgau,Austria,13.25,47.833333
Timelkam,Austria,13.6,48
Traiskirchen,Austria,16.283333,48.016667
Traismauer,Austria,15.733333,48.35
Traun,Austria,14.233333,48.216667
Trofaiach,Austria,15,47.416667
Tulln,Austria,16.05,48.333333
Velden Am Worthersee,Austria,14.045833,46.616111
Vienna,Austria,16.366667,48.2
Villach,Austria,13.855833,46.610278
Vocklabruck,Austria,13.65,48.016667
Vocklamarkt,Austria,13.483333,48
Voitsberg,Austria,15.15,47.033333
Volkermarkt,Austria,14.634444,46.662222
Vols,Austria,11.333333,47.25
Vomp,Austria,11.683333,47.333333
Vorchdorf,Austria,13.916667,48
Waidhofen,Austria,14.766667,47.966667
Wattens,Austria,11.6,47.283333
Weiz,Austria,15.616667,47.216667
Wels,Austria,14.033333,48.166667
Wernberg,Austria,13.933333,46.616667
Wiener Neudorf,Austria,16.316667,48.066667
Wiener Neustadt,Austria,16.25,47.8
Wilhelmsburg,Austria,15.6,48.1
Wolfsberg,Austria,14.844167,46.840556
Wolfurt,Austria,9.75,47.466667
Wolkersdorf,Austria,16.516667,48.383333
Worgl,Austria,12.066667,47.483333
Ybbs,Austria,15.083333,48.166667
Zell Am See,Austria,12.783333,47.316667
Zeltweg,Austria,14.75,47.183333
Zirl,Austria,11.233333,47.283333
Zistersdorf,Austria,16.75,48.533333
Zwettl,Austria,15.166667,48.616667
Adelaide,Australia,138.598633,-34.928661
Albany,Australia,117.865952,-35.003101
Albury,Australia,146.923935,-36.07494
Alice Springs,Australia,133.883621,-23.697479
Alyangula,Australia,136.421295,-13.85413
Ararat,Australia,142.927277,-37.285419
Armidale,Australia,151.671234,-30.50828
Atherton,Australia,145.47522,-17.268641
Australind,Australia,115.715042,-33.279202
Ayr,Australia,147.406662,-19.573931
Bairnsdale,Australia,147.610413,-37.822891
Ballarat,Australia,143.862579,-37.56266
Ballina,Australia,153.565414,-28.86414
Batemans Bay,Australia,150.175415,-35.706581
Benalla,Australia,145.984253,-36.551128
Bendigo,Australia,144.280243,-36.758179
Biloela,Australia,150.5,-24.416667
Blackwater,Australia,148.87912,-23.583509
Bongaree,Australia,153.159424,-27.08367
Bowen,Australia,148.247543,-20.01367
Bowral,Australia,150.420395,-34.477501
Brisbane,Australia,153.024292,-27.47101
Broken Hill,Australia,141.459976,-31.961729
Broome,Australia,122.23922,-17.955379
Buderim,Australia,153.057053,-26.684429
Bunbury,Australia,115.641373,-33.32711
Bundaberg,Australia,152.3479,-24.866211
Burnie,Australia,145.903748,-41.05584
Burpengary,Australia,152.959442,-27.161131
Busselton,Australia,115.345497,-33.652489
Byron Bay,Australia,153.611938,-28.64201
Caboolture,Australia,152.951096,-27.08465
Cairns,Australia,145.766251,-16.92304
Caloundra,Australia,153.137711,-26.797091
Canberra,Australia,149.13435,-35.27603
Carnarvon,Australia,113.659401,-24.88073
Casino,Australia,153.047485,-28.858191
Castlemaine,Australia,144.216843,-37.067089
Cessnock,Australia,151.356232,-32.832111
Charters Towers,Australia,146.263535,-20.07671
Clifton Springs,Australia,144.555099,-38.1567
Coffs Harbour,Australia,153.11351,-30.296261
Colac,Australia,143.584885,-38.339001
Collie,Australia,116.156174,-33.362061
Coolum Beach,Australia,153.091232,-26.533331
Cooma,Australia,149.125977,-36.234692
Cootamundra,Australia,148.028381,-34.640949
Corowa,Australia,146.385803,-35.999619
Cowra,Australia,148.696625,-33.835541
Craigieburn,Australia,144.95,-37.6
Cranbourne,Australia,145.283264,-38.113419
Crib Point,Australia,145.2,-38.35
Dalby,Australia,151.262054,-27.18169
Darwin,Australia,130.836639,-12.45722
Deception Bay,Australia,153.026306,-27.193541
Deniliquin,Australia,144.959579,-35.527409
Devonport,Australia,146.351517,-41.176949
Dubbo,Australia,148.604843,-32.24295
Emerald,Australia,148.157837,-23.522961
Esperance,Australia,121.882591,-33.86013
Flinders,Australia,134.211594,-32.79924
Forbes,Australia,148.007599,-33.384361
Galiwinku,Australia,135.564865,-12.02811
Gatton,Australia,152.276184,-27.558729
Gawler,Australia,138.749023,-34.602509
Geelong,Australia,144.358093,-38.153461
Geraldton,Australia,114.614594,-28.778971
Gladstone,Australia,151.256348,-23.84761
Gold Coast,Australia,153.430878,-28.00029
Goulburn,Australia,149.720856,-34.751549
Grafton,Australia,152.933365,-29.690121
Griffith,Australia,146.050934,-34.288528
Gunnedah,Australia,150.258377,-30.98065
Gympie,Australia,152.658188,-26.189159
Hamilton,Australia,142.028915,-37.74334
Hastings,Australia,145.183333,-38.3
Healesville,Australia,145.517181,-37.65395
Hervey Bay,Australia,152.873,-25.285
Hobart,Australia,147.331665,-42.883209
Horsham,Australia,142.199814,-36.711311
Howard Springs,Australia,131.044464,-12.49576
Ingham,Australia,146.162476,-18.645519
Innisfail,Australia,146.031021,-17.522091
Inverell,Australia,151.111664,-29.774031
Jabiru,Australia,132.831406,-12.67558
Karratha,Australia,116.84638,-20.73649
Katherine,Australia,132.263474,-14.46517
Kawana Waters,Australia,153.131577,-26.705999
Kempsey,Australia,152.830933,-31.078979
Kiama,Australia,150.852188,-34.668282
Kingaroy,Australia,151.837296,-26.53994
Kununurra,Australia,128.744141,-15.77813
Kurri Kurri,Australia,151.47908,-32.819328
Kwinana,Australia,115.781281,-32.230129
Kyabram,Australia,145.050354,-36.313351
Lakes Entrance,Australia,147.995132,-37.878941
Lara,Australia,144.406174,-38.02388
Launceston,Australia,147.134674,-41.438759
Leeton,Australia,146.404831,-34.551048
Lemon Tree Passage,Australia,152.037186,-32.731579
Leopold,Australia,144.468246,-38.19001
Lismore,Australia,153.275803,-28.81328
Lithgow,Australia,150.136307,-33.482471
Mackay,Australia,149.165543,-21.15345
Mandurah,Australia,115.721703,-32.526901
Maningrida,Australia,134.22258,-12.05111
Mareeba,Australia,145.423233,-16.995001
Maryborough,Australia,152.704926,-25.54073
Maryborough,Australia,143.739227,-37.04562
Medowie,Australia,151.867599,-32.741501
Melbourne,Australia,144.963425,-37.813938
Melton,Australia,144.585434,-37.683392
Mildura,Australia,142.162506,-34.185509
Milingimbi,Australia,134.919006,-12.10188
Mittagong,Australia,150.445724,-34.45002
Moranbah,Australia,148.034836,-21.99828
Morayfield,Australia,152.949066,-27.108761
Moree,Australia,149.841568,-29.46278
Morwell,Australia,146.394989,-38.23476
Moss Vale,Australia,150.371155,-34.553741
Mount Barker,Australia,138.866667,-35.066667
Mount Gambier,Australia,140.77919,-37.831799
Mount Isa,Australia,139.497269,-20.725229
Mudgee,Australia,149.583333,-32.433333
Murray Bridge,Australia,139.273453,-35.119862
Murwillumbah,Australia,153.393387,-28.32732
Muswellbrook,Australia,150.890091,-32.261181
Nambour,Australia,152.959412,-26.626129
Nambucca Heads,Australia,153.008835,-30.643181
Narrabri,Australia,149.783707,-30.32612
Nelson Bay,Australia,152.143982,-32.720428
Nerang,Australia,153.336334,-27.98941
Newcastle,Australia,151.784485,-32.927792
New Norfolk,Australia,147.059387,-42.78075
Nguiu,Australia,130.638153,-11.75911
Ngukurr,Australia,134.731018,-14.73081
Nhulunbuy,Australia,136.782013,-12.18652
Northam,Australia,116.674232,-31.649321
Orange,Australia,149.100006,-33.283089
Pakenham,Australia,145.474106,-38.070179
Palmerston,Australia,130.836639,-12.45722
Parkes,Australia,148.175903,-33.137199
Perth,Australia,115.861397,-31.95224
Port Augusta,Australia,137.772812,-32.495972
Port Hedland,Australia,118.610588,-20.312149
Port Keats,Australia,129.52092,-14.24029
Portland,Australia,141.605743,-38.352612
Port Lincoln,Australia,135.87442,-34.72625
Port Macquarie,Australia,152.908936,-31.43084
Port Pirie,Australia,138.017456,-33.191761
Queanbeyan,Australia,149.231995,-35.354931
Raymond Terrace,Australia,151.75,-32.75
Rockhampton,Australia,150.505951,-23.38032
Roebourne,Australia,117.146477,-20.772289
Roma,Australia,148.787506,-26.56741
Sale,Australia,147.068024,-38.11095
Sawtell,Australia,153.10141,-30.36459
Singleton,Australia,151.166031,-32.567421
Somerville,Australia,145.166667,-38.216667
Stawell,Australia,142.780884,-37.05632
Sunbury,Australia,144.726074,-37.577419
Swan Hill,Australia,143.559525,-35.3386
Sydney,Australia,151.205475,-33.861481
Tamworth,Australia,150.929047,-31.090481
Taree,Australia,152.453873,-31.91099
Toowoomba,Australia,151.953857,-27.56056
Torquay,Australia,152.866667,-25.283333
Townsville,Australia,146.805695,-19.26639
Traralgon,Australia,146.541504,-38.195278
Tumut,Australia,148.225052,-35.300159
Ulladulla,Australia,150.472473,-35.359058
Ulverstone,Australia,146.182419,-41.160259
Victor Harbor,Australia,138.621536,-35.550419
Victoria Point,Australia,153.311722,-27.58329
Wagga Wagga,Australia,147.353745,-35.125771
Wangaratta,Australia,146.320557,-36.358459
Warragul,Australia,145.931183,-38.159119
Warrnambool,Australia,142.487991,-38.38176
Warwick,Australia,152.034378,-28.219009
Wellington,Australia,148.945084,-32.555882
Whyalla,Australia,137.564835,-33.032681
Wodonga,Australia,146.888092,-36.121792
Wollongong,Australia,150.893448,-34.424
Wonthaggi,Australia,145.593552,-38.605862
Yeppoon,Australia,150.744064,-23.126829
Young,Australia,148.301071,-34.313499
Yulara,Australia,130.980545,-25.245291
Oranjestad,Aruba,-70.0333333,12.5166667
Agdam,Azerbaiyán,46.927356,39.99096
Agdas,Azerbaiyán,47.476111,40.65
Agstafa,Azerbaiyán,45.453889,41.118889
Agsu,Azerbaiyán,48.396476,40.569167
Alunitdag,Azerbaiyán,46.080556,40.521667
Aran,Azerbaiyán,46.975556,40.625278
Artyom,Azerbaiyán,50.333041,40.472255
Astara,Azerbaiyán,48.87498,38.455977
Badamdar,Azerbaiyán,49.803889,40.339444
Baku,Azerbaiyán,49.882222,40.395278
Basqal,Azerbaiyán,48.391044,40.7552
Buzovna,Azerbaiyán,50.113901,40.517888
Ceyranbatan,Azerbaiyán,49.659722,40.540833
Corat,Azerbaiyán,49.706389,40.5725
Culfa,Azerbaiyán,45.6308,38.9558
Gilazi,Azerbaiyán,49.335522,40.903896
Gilazi,Azerbaiyán,49.342333,40.870977
Goranboy,Azerbaiyán,46.789722,40.610278
Goycay,Azerbaiyán,47.740556,40.653056
Gurgan,Azerbaiyán,50.336733,40.397462
Guzdak,Azerbaiyán,49.681944,40.374444
Hadrut,Azerbaiyán,47.0318,39.520018
Haftoni,Azerbaiyán,48.762231,38.763253
Hasanabad,Azerbaiyán,49.214143,39.336672
Horadiz,Azerbaiyán,47.335313,39.448771
Hovsan,Azerbaiyán,50.085278,40.374444
Imisli,Azerbaiyán,48.064094,39.871307
Istisu,Azerbaiyán,45.962121,39.947532
Kesla,Azerbaiyán,49.898611,40.397778
Kijaba,Azerbaiyán,48.816667,38.532778
Kirovskiy,Azerbaiyán,49.85,40.433333
Korgoz,Azerbaiyán,49.62,40.303056
Lerik,Azerbaiyán,48.412788,38.772633
Lokbatan,Azerbaiyán,49.728038,40.323718
Masalli,Azerbaiyán,48.670276,39.027781
Mastaga,Azerbaiyán,50.003889,40.532778
Mincivan,Azerbaiyán,46.718471,39.029348
Mugan,Azerbaiyán,48.821136,40.095182
Naftalan,Azerbaiyán,46.825,40.506667
Nardaran,Azerbaiyán,50.005556,40.556111
Neftcala,Azerbaiyán,49.247224,39.37417
Ordubad,Azerbaiyán,46.023411,38.905954
Pirsagi,Azerbaiyán,49.8913,40.564032
Pushkino,Azerbaiyán,48.545,39.458333
Puta,Azerbaiyán,49.660278,40.296667
Qabaqcol,Azerbaiyán,46.264722,41.72
Qala,Azerbaiyán,50.168121,40.44182
Qaracala,Azerbaiyán,48.952303,39.813178
Qaracuxur,Azerbaiyán,49.973611,40.396667
Qarayeri,Azerbaiyán,46.306589,40.78862
Qax,Azerbaiyán,46.924167,41.4225
Qazanbulaq,Azerbaiyán,46.645278,40.618611
Qazax,Azerbaiyán,45.366111,41.093333
Qobu,Azerbaiyán,49.713056,40.404722
Qobustan,Azerbaiyán,49.412048,40.08238
Qovlar,Azerbaiyán,45.732171,40.942137
Quba,Azerbaiyán,48.515186,41.362587
Qusar,Azerbaiyán,48.42893,41.427284
Quscu,Azerbaiyán,46.091944,40.555556
Ramana,Azerbaiyán,49.980556,40.442222
Sabirabad,Azerbaiyán,48.475154,40.009458
Sabuncu,Azerbaiyán,49.948056,40.4425
Sahbuz,Azerbaiyán,45.573889,39.407222
Salyan,Azerbaiyán,48.980552,39.593615
Samur,Azerbaiyán,48.430248,41.632544
Saray,Azerbaiyán,49.716389,40.532222
Sollar,Azerbaiyán,48.664408,41.639727
Sonqar,Azerbaiyán,49.601085,40.322099
Suraabad,Azerbaiyán,49.468745,40.819244
Susa,Azerbaiyán,46.749187,39.758934
Tovuz,Azerbaiyán,45.628889,40.992222
Turkan,Azerbaiyán,50.215,40.363889
Turyancay,Azerbaiyán,47.54326,40.7088
Ucar,Azerbaiyán,47.654167,40.518333
Vurgun,Azerbaiyán,45.471616,41.094229
Xacmaz,Azerbaiyán,48.80605,41.463489
Xanlar,Azerbaiyán,46.315833,40.586944
Xocali,Azerbaiyán,46.866667,39.9
Xocali,Azerbaiyán,46.790284,39.912973
Xocasan,Azerbaiyán,49.772088,40.413484
Xudat,Azerbaiyán,48.681,41.630965
Yevlax,Azerbaiyán,47.142329,40.612732
Zabrat,Azerbaiyán,49.941582,40.476104
Zaqatala,Azerbaiyán,46.643333,41.633611
Zig,Azerbaiyán,49.969167,40.343889
Banja Luka,Bosnia y Herzegovina,17.1855556,44.7758333
Banovici,Bosnia y Herzegovina,18.4475,44.4041667
Barice,Bosnia y Herzegovina,18.4811111,44.5405556
Batkovici,Bosnia y Herzegovina,19.1963889,44.8536111
Bihac,Bosnia y Herzegovina,15.8708333,44.8169444
Bijela,Bosnia y Herzegovina,17.9519444,43.6086111
Bijeljina,Bosnia y Herzegovina,19.2161111,44.7569444
Bila,Bosnia y Herzegovina,16.9252778,43.7825
Bileca,Bosnia y Herzegovina,18.4297222,42.8719444
Blagaj,Bosnia y Herzegovina,17.8886111,43.2575
Blatnica,Bosnia y Herzegovina,17.5894444,44.3530556
Bosanska Dubica,Bosnia y Herzegovina,16.8094444,45.1766667
Bosanska Gradiska,Bosnia y Herzegovina,17.25,45.1411111
Bosanska Kostajnica,Bosnia y Herzegovina,16.5358333,45.2197222
Bosanska Krupa,Bosnia y Herzegovina,16.1513889,44.8825
Bosanski Brod,Bosnia y Herzegovina,17.9897222,45.1375
Bosanski Novi,Bosnia y Herzegovina,16.3802778,45.0458333
Bosanski Samac,Bosnia y Herzegovina,18.4669444,45.0591667
Bosansko Grahovo,Bosnia y Herzegovina,16.3638889,44.1794444
Bratunac,Bosnia y Herzegovina,19.3394444,44.1875
Brcko,Bosnia y Herzegovina,18.8083333,44.8727778
Breza,Bosnia y Herzegovina,18.2588889,44.0161111
Bronzani Majdan,Bosnia y Herzegovina,16.9311111,44.7869444
Bugojno,Bosnia y Herzegovina,17.4508333,44.0572222
Busovaca,Bosnia y Herzegovina,17.8788889,44.0975
Buzim,Bosnia y Herzegovina,16.0319444,45.0547222
Cajnice,Bosnia y Herzegovina,19.0711111,43.5575
Capljina,Bosnia y Herzegovina,17.7036111,43.1138889
Careva Cuprija,Bosnia y Herzegovina,18.4291667,44.2658333
Cazin,Bosnia y Herzegovina,15.9430556,44.9669444
Cecava,Bosnia y Herzegovina,17.7705556,44.6866667
Celinac,Bosnia y Herzegovina,17.3277778,44.7227778
Cim,Bosnia y Herzegovina,17.7772222,43.3527778
Citluk,Bosnia y Herzegovina,17.7008333,43.2286111
Coralici,Bosnia y Herzegovina,15.9041667,44.9830556
Crnici,Bosnia y Herzegovina,17.8666667,43.1288889
Derventa,Bosnia y Herzegovina,17.9102778,44.9772222
Divicani,Bosnia y Herzegovina,17.3261111,44.3666667
Doboj,Bosnia y Herzegovina,18.0877778,44.7347222
Dobrinje,Bosnia y Herzegovina,18.1194444,44.0497222
Dobrljin,Bosnia y Herzegovina,16.5033333,45.1469444
Donja Dubica,Bosnia y Herzegovina,18.4113889,45.075
Donja Mahala,Bosnia y Herzegovina,18.6663889,45.0469444
Donja Medjidja,Bosnia y Herzegovina,18.4033333,44.8025
Donja Orahovica,Bosnia y Herzegovina,18.3702778,44.6530556
Donje Dubrave,Bosnia y Herzegovina,18.6961111,44.4811111
Donje Vukovije,Bosnia y Herzegovina,18.7538889,44.4636111
Donji Vakuf,Bosnia y Herzegovina,17.4,44.1436111
Dreznica,Bosnia y Herzegovina,17.2819444,43.5288889
Drinovci,Bosnia y Herzegovina,17.3538889,43.355
Dubravica,Bosnia y Herzegovina,18.1180556,44.4419444
Foca,Bosnia y Herzegovina,18.7786111,43.505
Fojnica,Bosnia y Herzegovina,17.8983333,43.9625
Gacko,Bosnia y Herzegovina,18.5352778,43.1672222
Glamoc,Bosnia y Herzegovina,16.8486111,44.0458333
Gnojnica,Bosnia y Herzegovina,18.4466667,44.6205556
Gorazde,Bosnia y Herzegovina,18.9763889,43.6669444
Gornja Koprivna,Bosnia y Herzegovina,15.9572222,45.0119444
Gornja Tuzla,Bosnia y Herzegovina,18.7613889,44.5561111
Gornje Dubrave,Bosnia y Herzegovina,18.7297222,44.4713889
Gornje Zivinice,Bosnia y Herzegovina,18.6169444,44.4286111
Gornji Vakuf,Bosnia y Herzegovina,17.5883333,43.9380556
Gostovici,Bosnia y Herzegovina,18.1583333,44.415
Gracanica,Bosnia y Herzegovina,18.3097222,44.7033333
Gradacac,Bosnia y Herzegovina,18.4269444,44.8808333
Gromiljak,Bosnia y Herzegovina,18.0530556,43.9666667
Grude,Bosnia y Herzegovina,17.4205556,43.3641667
Hadzici,Bosnia y Herzegovina,18.2066667,43.8222222
Hotonj,Bosnia y Herzegovina,18.3727778,43.8947222
Ilici,Bosnia y Herzegovina,17.7680556,43.3472222
Ilijas,Bosnia y Herzegovina,18.2708333,43.9508333
Izacic,Bosnia y Herzegovina,15.7819444,44.875
Jablanica,Bosnia y Herzegovina,17.7616667,43.6602778
Jajce,Bosnia y Herzegovina,17.2655556,44.3422222
Janja,Bosnia y Herzegovina,19.2477778,44.6652778
Jelah,Bosnia y Herzegovina,17.9580556,44.6541667
Jezerski,Bosnia y Herzegovina,16.0841667,44.9808333
Kacuni,Bosnia y Herzegovina,17.9386111,44.065
Kakanj,Bosnia y Herzegovina,18.1180556,44.1272222
Karadaglije,Bosnia y Herzegovina,18.0183333,44.5716667
Kiseljak,Bosnia y Herzegovina,18.5688889,44.4888889
Kladanj,Bosnia y Herzegovina,18.6913889,44.2263889
Kljuc,Bosnia y Herzegovina,16.7722222,44.535
Knezica,Bosnia y Herzegovina,16.6775,45.1027778
Kobilja Glava,Bosnia y Herzegovina,18.3891667,43.8819444
Kocerin,Bosnia y Herzegovina,17.485,43.3897222
Konjic,Bosnia y Herzegovina,17.9613889,43.6519444
Koran,Bosnia y Herzegovina,18.5688889,43.8102778
Laktasi,Bosnia y Herzegovina,17.3008333,44.9080556
Lamovita,Bosnia y Herzegovina,16.9072222,44.9255556
Lijesnica,Bosnia y Herzegovina,18.0741667,44.4941667
Listica,Bosnia y Herzegovina,17.5927778,43.3833333
Livno,Bosnia y Herzegovina,17.0077778,43.8269444
Ljubinje,Bosnia y Herzegovina,18.0886111,42.9508333
Ljubuski,Bosnia y Herzegovina,17.545,43.1969444
Lokvine,Bosnia y Herzegovina,17.8563889,44.2047222
Lopare,Bosnia y Herzegovina,18.8427778,44.6377778
Lukavac,Bosnia y Herzegovina,18.5258333,44.5419444
Lukavica,Bosnia y Herzegovina,18.1688889,44.7627778
Maglajani,Bosnia y Herzegovina,17.3494444,44.9486111
Maglaj,Bosnia y Herzegovina,18.0966667,44.5491667
Mala Kladusa,Bosnia y Herzegovina,15.8586111,45.1341667
Malesici,Bosnia y Herzegovina,18.2738889,44.7380556
Maricka,Bosnia y Herzegovina,16.8522222,44.8588889
Maslovare,Bosnia y Herzegovina,17.5336111,44.5655556
Milici,Bosnia y Herzegovina,19.0316667,44.1316667
Mionica,Bosnia y Herzegovina,18.4630556,44.8672222
Modrica,Bosnia y Herzegovina,18.3036111,44.9544444
Mostar,Bosnia y Herzegovina,17.8080556,43.3433333
Mostre,Bosnia y Herzegovina,18.1413889,44.025
Mramor,Bosnia y Herzegovina,18.5644444,44.5916667
Mrkonjic Grad,Bosnia y Herzegovina,17.0861111,44.4158333
Nevesinje,Bosnia y Herzegovina,18.1133333,43.2586111
Novi Seher,Bosnia y Herzegovina,18.0258333,44.5102778
Novi Travnik,Bosnia y Herzegovina,17.6575,44.1711111
Obudovac,Bosnia y Herzegovina,18.6122222,44.965
Odzak,Bosnia y Herzegovina,18.3266667,45.0111111
Olovo,Bosnia y Herzegovina,18.5827778,44.13
Omarska,Bosnia y Herzegovina,16.8991667,44.89
Orasac,Bosnia y Herzegovina,16.0711111,44.6288889
Orasje,Bosnia y Herzegovina,18.6933333,45.0355556
Orguz,Bosnia y Herzegovina,16.8638889,43.7738889
Ostra Luka,Bosnia y Herzegovina,18.5883333,45.0
Ostrozac,Bosnia y Herzegovina,15.9402778,44.9086111
Otoka,Bosnia y Herzegovina,16.1791667,44.96
Pajic Polje,Bosnia y Herzegovina,17.5275,43.9758333
Pale,Bosnia y Herzegovina,18.5694444,43.8161111
Pazaric,Bosnia y Herzegovina,18.1608333,43.7886111
Pecigrad,Bosnia y Herzegovina,15.8969444,45.0544444
Peci,Bosnia y Herzegovina,16.7861111,44.6272222
Petkovci,Bosnia y Herzegovina,19.0761111,44.4530556
Piskavica,Bosnia y Herzegovina,16.9888889,44.8341667
Pjanici,Bosnia y Herzegovina,15.8227778,44.9836111
Podbrdo,Bosnia y Herzegovina,17.0138889,44.4408333
Podhum,Bosnia y Herzegovina,17.0011111,43.7230556
Podzvizd,Bosnia y Herzegovina,15.8736111,45.1741667
Polje,Bosnia y Herzegovina,18.0744444,43.8805556
Posusje,Bosnia y Herzegovina,17.3266667,43.4722222
Potoci,Bosnia y Herzegovina,17.8786111,43.4086111
Pribinic,Bosnia y Herzegovina,17.6905556,44.6105556
Priboj,Bosnia y Herzegovina,18.9313889,44.6027778
Prijedor,Bosnia y Herzegovina,16.7130556,44.9813889
Prnjavor,Bosnia y Herzegovina,17.6627778,44.8702778
Prozor,Bosnia y Herzegovina,17.6091667,43.8222222
Puracic,Bosnia y Herzegovina,18.4766667,44.5469444
Radisici,Bosnia y Herzegovina,17.5430556,43.2219444
Rodoc,Bosnia y Herzegovina,17.8069444,43.3088889
Rogatica,Bosnia y Herzegovina,19.0025,43.8008333
Rumboci,Bosnia y Herzegovina,17.5011111,43.8322222
Sanica,Bosnia y Herzegovina,16.6411111,44.6141667
Sanski Most,Bosnia y Herzegovina,16.6655556,44.7652778
Sarajevo,Bosnia y Herzegovina,18.3833333,43.85
Sekovici,Bosnia y Herzegovina,18.8527778,44.2986111
Serici,Bosnia y Herzegovina,18.5580556,44.4652778
Sipovo,Bosnia y Herzegovina,17.0838889,44.2813889
Skender Vakuf,Bosnia y Herzegovina,17.3775,44.4908333
Skokovi,Bosnia y Herzegovina,15.9144444,45.0313889
Sladna,Bosnia y Herzegovina,18.4241667,44.7294444
Sokolac,Bosnia y Herzegovina,18.8016667,43.9397222
Solina,Bosnia y Herzegovina,18.6947222,44.5602778
Srbac,Bosnia y Herzegovina,17.525,45.0977778
Srebrenica,Bosnia y Herzegovina,19.2969444,44.1063889
Srebrenik,Bosnia y Herzegovina,18.4880556,44.7077778
Stanari,Bosnia y Herzegovina,17.8294444,44.7472222
Stijena,Bosnia y Herzegovina,16.0172222,44.9352778
Stolac,Bosnia y Herzegovina,17.9575,43.0844444
Stupari,Bosnia y Herzegovina,18.6841667,44.3147222
Sturlic,Bosnia y Herzegovina,15.7780556,45.0638889
Sumatac,Bosnia y Herzegovina,15.8575,45.0988889
Svodna,Bosnia y Herzegovina,16.5383333,45.0372222
Svojat,Bosnia y Herzegovina,18.7391667,44.3947222
Tesanjka,Bosnia y Herzegovina,18.0127778,44.6730556
Tesanj,Bosnia y Herzegovina,17.9872222,44.6116667
Teslic,Bosnia y Herzegovina,17.8597222,44.6063889
Todorovo,Bosnia y Herzegovina,15.9308333,45.0883333
Tojsici,Bosnia y Herzegovina,18.7869444,44.4813889
Tolisa,Bosnia y Herzegovina,18.6427778,45.0430556
Tomislavgrad,Bosnia y Herzegovina,17.2266667,43.7180556
Travnik,Bosnia y Herzegovina,17.6705556,44.2266667
Trebinje,Bosnia y Herzegovina,18.3441667,42.7119444
Trn,Bosnia y Herzegovina,17.2363889,44.8597222
Trzacka Rastela,Bosnia y Herzegovina,15.7902778,44.9733333
Turbe,Bosnia y Herzegovina,17.5713889,44.2436111
Tuzla,Bosnia y Herzegovina,18.6694444,44.5427778
Ugljevik,Bosnia y Herzegovina,19.0202778,44.6636111
Ustikolina,Bosnia y Herzegovina,18.79,43.5836111
Vares,Bosnia y Herzegovina,18.3283333,44.1644444
Varoska Rijeka,Bosnia y Herzegovina,16.0141667,45.0847222
Velagici,Bosnia y Herzegovina,16.7316667,44.5572222
Velika Kladusa,Bosnia y Herzegovina,15.8116667,45.1894444
Velika Obarska,Bosnia y Herzegovina,19.1641667,44.8052778
Vidosi,Bosnia y Herzegovina,17.0283333,43.7713889
Visegrad,Bosnia y Herzegovina,19.2991667,43.7847222
Visoko,Bosnia y Herzegovina,18.1780556,43.9888889
Vitez,Bosnia y Herzegovina,17.7902778,44.1544444
Vitina,Bosnia y Herzegovina,17.4838889,43.2375
Vlasenica,Bosnia y Herzegovina,18.9405556,44.1819444
Vogosca,Bosnia y Herzegovina,18.3480556,43.9019444
Voljevac,Bosnia y Herzegovina,17.6591667,43.8786111
Vozuca,Bosnia y Herzegovina,18.3577778,44.3613889
Vrnograc,Bosnia y Herzegovina,15.9536111,45.1636111
Zabrisce,Bosnia y Herzegovina,16.9422222,43.7925
Zavidovici,Bosnia y Herzegovina,18.1497222,44.4458333
Zboriste,Bosnia y Herzegovina,16.0177778,45.1458333
Zeljezno Polje,Bosnia y Herzegovina,17.9319444,44.4083333
Zenica,Bosnia y Herzegovina,17.9063889,44.2013889
Zepce,Bosnia y Herzegovina,18.0377778,44.4266667
Zivinice,Bosnia y Herzegovina,18.6497222,44.4494444
Zivinice,Bosnia y Herzegovina,17.375,44.5472222
Zvornik,Bosnia y Herzegovina,19.1013889,44.3869444
Bathsheba,Barbados,-59.5166667,13.2166667
Blackmans,Barbados,-59.5333333,13.1833333
Bridgetown,Barbados,-59.6166667,13.1
Crab Hill,Barbados,-59.6333333,13.3166667
Greenland,Barbados,-59.5666667,13.25
Hillaby,Barbados,-59.5833333,13.2166667
Holetown,Barbados,-59.65,13.1833333
Oistins,Barbados,-59.5333333,13.0666667
Speightstown,Barbados,-59.65,13.25
Abhaynagar,Bangladesh,89.4666667,23.0166667
Badarganj,Bangladesh,89.05,25.6666667
Bajitpur,Bangladesh,90.95,24.2166667
Bandarban,Bangladesh,92.2166667,22.2
Baniachang,Bangladesh,91.3666667,24.5166667
Barisal,Bangladesh,90.3666667,22.7
Bera,Bangladesh,89.6166667,24.0833333
Bhairab Bazar,Bangladesh,90.9666667,24.0666667
Bhandaria,Bangladesh,90.0666667,22.4833333
Bheramara,Bangladesh,88.9666667,24.0333333
Bhola,Bangladesh,90.65,22.6833333
Chandpur,Bangladesh,90.7166667,23.15
Char Bhadrasan,Bangladesh,90.2166667,23.3166667
Chhagalnaiya,Bangladesh,91.5069444,23.03
Chhatak,Bangladesh,91.6666667,25.0333333
Chilmari,Bangladesh,89.7166667,25.55
Dhaka,Bangladesh,90.4086111,23.7230556
Dhamrai,Bangladesh,90.2683333,23.9122222
Dinajpur,Bangladesh,88.6333333,25.6333333
Dohar,Bangladesh,90.1469444,23.5883333
Faridpur,Bangladesh,89.8333333,23.6
Fatikchhari,Bangladesh,91.7675,22.725
Feni,Bangladesh,91.41,23.0186111
Gafargaon,Bangladesh,90.5666667,24.4333333
Gaurnadi,Bangladesh,90.2333333,22.9666667
Gazipur,Bangladesh,90.65,23.8
Habiganj,Bangladesh,91.4166667,24.3833333
Hajiganj,Bangladesh,90.8591667,23.2511111
Ishurdi,Bangladesh,89.0833333,24.1333333
Jaipur Hat,Bangladesh,89.0166667,25.1
Jamalpur,Bangladesh,89.9333333,24.9166667
Jhikargachha,Bangladesh,89.1166667,23.1166667
Kalia,Bangladesh,89.6333333,23.05
Kaliganj,Bangladesh,89.1333333,23.4166667
Keshabpur,Bangladesh,89.2166667,22.9166667
Khagrachari,Bangladesh,91.9666667,23.1
Khulna,Bangladesh,89.55,22.8
Kishorganj,Bangladesh,90.7666667,24.4333333
Laksham,Bangladesh,91.1425,23.2472222
Lakshmipur,Bangladesh,90.8333333,22.95
Lalmanir Hat,Bangladesh,89.45,25.9
Lalmohan,Bangladesh,90.7166667,22.3166667
Madaripur,Bangladesh,90.2072222,23.1752778
Manikchhari,Bangladesh,91.8455556,22.8386111
Manikganj,Bangladesh,90.0125,23.8552778
Mathbaria,Bangladesh,89.95,22.3
Maulvi Bazar,Bangladesh,91.7833333,24.4833333
Mehendiganj,Bangladesh,90.5333333,22.8166667
Mirzapur,Bangladesh,90.1,24.1
Morrelganj,Bangladesh,89.85,22.4666667
Muktagachha,Bangladesh,90.2333333,24.7666667
Nabinagar,Bangladesh,90.9733333,23.8916667
Nageshwari,Bangladesh,89.7166667,25.9666667
Nalchiti,Bangladesh,90.2833333,22.6333333
Naral,Bangladesh,89.5,23.1666667
Narayanganj,Bangladesh,90.5011111,23.6233333
Narsingdi,Bangladesh,90.7180556,23.9208333
Nawabganj,Bangladesh,88.2833333,24.6
Netrakona,Bangladesh,90.7166667,24.8833333
Pabna,Bangladesh,89.25,24.0
Palang,Bangladesh,90.35,23.2166667
Panchagarh,Bangladesh,88.5666667,26.3333333
Parbatipur,Bangladesh,88.9166667,25.65
Patiya,Bangladesh,91.9783333,22.3030556
Phultala,Bangladesh,89.5166667,22.7
Pirganj,Bangladesh,88.3666667,25.8666667
Pirojpur,Bangladesh,89.9833333,22.5666667
Rajshahi,Bangladesh,88.6,24.3666667
Ramganj,Bangladesh,90.85,23.1
Ramgarh,Bangladesh,91.7966667,22.9702778
Rangpur,Bangladesh,89.25,25.75
Raozan,Bangladesh,91.9325,22.5661111
Raypur,Bangladesh,90.7666667,23.05
Sakhipur,Bangladesh,90.1833333,24.3
Sarankhola,Bangladesh,89.7833333,22.3
Sarishabari,Bangladesh,89.8333333,24.7333333
Satkhira,Bangladesh,89.1,22.7166667
Sherpur,Bangladesh,90.0166667,25.0166667
Shibganj,Bangladesh,88.1666667,24.6833333
Sirajganj,Bangladesh,89.7166667,24.45
Sunamganj,Bangladesh,91.4,25.0666667
Teknaf,Bangladesh,92.3,20.8666667
Thakurgaon,Bangladesh,88.4666667,26.0333333
Tungi,Bangladesh,90.4058333,23.89
Aalst,Bélgica,4.033333,50.933333
Aalter,Bélgica,3.45,51.083333
Aarschot,Bélgica,4.833333,50.983333
Aartselaar,Bélgica,4.383333,51.133333
Alken,Bélgica,5.3,50.866667
Alveringem,Bélgica,2.716667,51.016667
Amay,Bélgica,5.316667,50.55
Amel,Bélgica,6.15,50.35
Andenne,Bélgica,5.1,50.483333
Anderlues,Bélgica,4.266667,50.4
Anhee,Bélgica,4.883333,50.316667
Ans,Bélgica,5.533333,50.65
Anthisnes,Bélgica,5.516667,50.483333
Antoing,Bélgica,3.45,50.566667
Antwerp,Bélgica,4.416667,51.216667
Anzegem,Bélgica,3.466667,50.833333
Ardooie,Bélgica,3.2,50.983333
Arendonk,Bélgica,5.083333,51.316667
Arlon,Bélgica,5.816667,49.683333
As,Bélgica,5.583333,51.016667
Asse,Bélgica,4.2,50.916667
Assenede,Bélgica,3.75,51.233333
Assesse,Bélgica,5.016667,50.366667
Ath,Bélgica,3.783333,50.633333
Attert,Bélgica,5.783333,49.766667
Aubange,Bélgica,5.8,49.583333
Aubel,Bélgica,5.85,50.7
Avelgem,Bélgica,3.433333,50.766667
Awans,Bélgica,5.466667,50.666667
Aywaille,Bélgica,5.666667,50.466667
Baarle-Hertog,Bélgica,4.933333,51.45
Baelen,Bélgica,5.966667,50.633333
Balen,Bélgica,5.15,51.166667
Bassenge,Bélgica,5.6,50.766667
Bastogne,Bélgica,5.716667,50
Beaumont,Bélgica,4.233333,50.233333
Beauraing,Bélgica,4.966667,50.116667
Beauvechain,Bélgica,4.766667,50.783333
Beernem,Bélgica,3.333333,51.15
Beerse,Bélgica,4.866667,51.316667
Beersel,Bélgica,4.3,50.766667
Begijnendijk,Bélgica,4.766667,51.016667
Bekkevoort,Bélgica,4.966667,50.95
Beloeil,Bélgica,3.716667,50.55
Beringen,Bélgica,5.216667,51.05
Berlaar,Bélgica,4.65,51.116667
Berlare,Bélgica,4,51.033333
Berloz,Bélgica,5.216667,50.7
Bernissart,Bélgica,3.633333,50.466667
Bertem,Bélgica,4.633333,50.866667
Bertogne,Bélgica,5.666667,50.083333
Bertrix,Bélgica,5.25,49.85
Bever,Bélgica,4.316667,50.916667
Beveren,Bélgica,4.25,51.216667
Beyne-Heusay,Bélgica,5.65,50.616667
Bierbeek,Bélgica,4.766667,50.833333
Bievre,Bélgica,5.016667,49.933333
Bilzen,Bélgica,5.516667,50.866667
Binche,Bélgica,4.166667,50.4
Blankenberge,Bélgica,3.133333,51.316667
Blegny,Bélgica,5.733333,50.666667
Bocholt,Bélgica,5.583333,51.166667
Boechout,Bélgica,4.5,51.166667
Bonheiden,Bélgica,4.533333,51.033333
Boom,Bélgica,4.366667,51.083333
Boortmeerbeek,Bélgica,4.566667,50.983333
Borgloon,Bélgica,5.333333,50.8
Bornem,Bélgica,4.233333,51.1
Borsbeek,Bélgica,4.483333,51.2
Bouillon,Bélgica,5.066667,49.8
Boussu,Bélgica,3.8,50.433333
Boutersem,Bélgica,4.833333,50.85
Braine-Le-Chateau,Bélgica,4.266667,50.683333
Braine-Le-Comte,Bélgica,4.133333,50.6
Braives,Bélgica,5.15,50.633333
Brasschaat,Bélgica,4.45,51.283333
Brecht,Bélgica,4.633333,51.35
Bredene,Bélgica,2.966667,51.233333
Bree,Bélgica,5.6,51.133333
Brugelette,Bélgica,3.85,50.6
Brugge,Bélgica,3.233333,51.216667
Brunehaut,Bélgica,4.416667,50.5
Brussels,Bélgica,4.333333,50.833333
Buggenhout,Bélgica,4.2,51.016667
Bullingen,Bélgica,6.266667,50.416667
Burdinne,Bélgica,5.066667,50.583333
Butgenbach,Bélgica,6.2,50.433333
Celles,Bélgica,3.45,50.716667
Cerfontaine,Bélgica,4.416667,50.166667
Chapelle-Lez-Herlaimont,Bélgica,4.283333,50.466667
Charleroi,Bélgica,4.433333,50.416667
Chastre,Bélgica,4.633333,50.6
Chatelet,Bélgica,4.516667,50.4
Chaudfontaine,Bélgica,5.633333,50.583333
Chaumont-Gistoux,Bélgica,4.733333,50.683333
Chievres,Bélgica,3.8,50.583333
Chimay,Bélgica,4.316667,50.05
Chiny,Bélgica,5.333333,49.733333
Ciney,Bélgica,5.1,50.3
Clavier,Bélgica,5.366667,50.416667
Colfontaine,Bélgica,3.866667,50.383333
Comblain-Au-Pont,Bélgica,5.583333,50.466667
Courcelles,Bélgica,4.366667,50.466667
Court-Saint-Etienne,Bélgica,4.566667,50.65
Couvin,Bélgica,4.483333,50.05
Crisnee,Bélgica,5.4,50.716667
Dalhem,Bélgica,5.716667,50.716667
Damme,Bélgica,3.283333,51.25
Daverdisse,Bélgica,5.116667,50.016667
Deerlijk,Bélgica,3.35,50.85
De Haan,Bélgica,3.033333,51.266667
Deinze,Bélgica,3.533333,50.983333
Denderleeuw,Bélgica,4.066667,50.883333
Dendermonde,Bélgica,4.116667,51.033333
Dentergem,Bélgica,3.416667,50.966667
De Panne,Bélgica,2.583333,51.1
De Pinte,Bélgica,3.65,51
Dessel,Bélgica,5.116667,51.233333
Destelbergen,Bélgica,3.8,51.05
Diepenbeek,Bélgica,5.4,50.9
Diest,Bélgica,5.05,50.983333
Diksmuide,Bélgica,2.866667,51.033333
Dilbeek,Bélgica,4.266667,50.85
Dinant,Bélgica,4.916667,50.266667
Dison,Bélgica,5.85,50.616667
Doische,Bélgica,4.75,50.133333
Donceel,Bélgica,5.316667,50.65
Dour,Bélgica,3.783333,50.4
Drogenbos,Bélgica,4.316667,50.783333
Duffel,Bélgica,4.516667,51.1
Durbuy,Bélgica,5.466667,50.35
Edegem,Bélgica,4.45,51.15
Eeklo,Bélgica,3.566667,51.183333
Eghezee,Bélgica,4.9,50.6
Ellezelles,Bélgica,3.683333,50.733333
Enghien,Bélgica,4.033333,50.7
Engis,Bélgica,5.416667,50.583333
Erezee,Bélgica,5.55,50.3
Erquelinnes,Bélgica,4.116667,50.3
Esneux,Bélgica,5.566667,50.533333
Essen,Bélgica,4.466667,51.466667
Estaimpuis,Bélgica,3.25,50.7
Etalle,Bélgica,5.6,49.683333
Eupen,Bélgica,6.033333,50.633333
Evergem,Bélgica,3.7,51.116667
Faimes,Bélgica,5.266667,50.666667
Farciennes,Bélgica,4.55,50.433333
Fauvillers,Bélgica,5.666667,49.85
Ferrieres,Bélgica,5.6,50.4
Fexhe-Le-Haut-Clocher,Bélgica,5.4,50.666667
Fleron,Bélgica,5.683333,50.616667
Fleurus,Bélgica,4.533333,50.483333
Flobecq,Bélgica,3.733333,50.733333
Floreffe,Bélgica,4.783333,50.433333
Florennes,Bélgica,4.616667,50.25
Florenville,Bélgica,5.3,49.7
Frameries,Bélgica,3.9,50.4
Galmaarden,Bélgica,3.966667,50.75
Gavere,Bélgica,3.666667,50.933333
Gedinne,Bélgica,4.933333,49.983333
Geel,Bélgica,5,51.166667
Geer,Bélgica,5.166667,50.666667
Geetbets,Bélgica,5.116667,50.883333
Gembloux,Bélgica,4.683333,50.566667
Genappe,Bélgica,4.45,50.6
Genk,Bélgica,5.5,50.966667
Gent,Bélgica,3.716667,51.05
Geraardsbergen,Bélgica,3.866667,50.766667
Gerpinnes,Bélgica,4.516667,50.333333
Gesves,Bélgica,5.066667,50.4
Gingelom,Bélgica,5.116667,50.75
Gistel,Bélgica,2.95,51.166667
Glabbeek,Bélgica,4.95,50.866667
Gooik,Bélgica,4.116667,50.8
Gouvy,Bélgica,5.941111,50.185
Grez-Doiceau,Bélgica,4.7,50.733333
Grimbergen,Bélgica,4.383333,50.933333
Grobbendonk,Bélgica,4.716667,51.2
Haacht,Bélgica,4.633333,50.983333
Haaltert,Bélgica,4,50.9
Habay,Bélgica,5.616667,49.733333
Halen,Bélgica,5.1,50.95
Halle,Bélgica,4.233333,50.733333
Hamme,Bélgica,4.133333,51.1
Hamoir,Bélgica,5.533333,50.433333
Hamois,Bélgica,5.133333,50.333333
Hannut,Bélgica,5.083333,50.666667
Harelbeke,Bélgica,3.3,50.85
Hasselt,Bélgica,5.333333,50.933333
Hastiere,Bélgica,4.833333,50.216667
Havelange,Bélgica,5.233333,50.383333
Heers,Bélgica,5.283333,50.75
Heist-Op-Den-Berg,Bélgica,4.716667,51.083333
Hemiksem,Bélgica,4.35,51.15
Hensies,Bélgica,3.666667,50.433333
Herbeumont,Bélgica,5.233333,49.783333
Herentals,Bélgica,4.833333,51.183333
Herent,Bélgica,4.666667,50.9
Herenthout,Bélgica,4.766667,51.15
Herk-De-Stad,Bélgica,5.166667,50.933333
Herne,Bélgica,4.033333,50.716667
Heron,Bélgica,5.083333,50.55
Herselt,Bélgica,4.883333,51.05
Herstal,Bélgica,5.633333,50.666667
Herstappe,Bélgica,5.416667,50.733333
Herve,Bélgica,5.8,50.633333
Herzele,Bélgica,3.883333,50.883333
Hoegaarden,Bélgica,4.9,50.783333
Hoeilaart,Bélgica,4.466667,50.766667
Hoeselt,Bélgica,5.483333,50.85
Holsbeek,Bélgica,4.75,50.916667
Hooglede,Bélgica,3.083333,50.983333
Hoogstraten,Bélgica,4.766667,51.4
Hotton,Bélgica,5.45,50.266667
Houffalize,Bélgica,5.783333,50.133333
Houthulst,Bélgica,2.95,50.983333
Houyet,Bélgica,5.016667,50.183333
Hove,Bélgica,4.466667,51.15
Huldenberg,Bélgica,4.583333,50.783333
Hulshout,Bélgica,4.783333,51.083333
Huy,Bélgica,5.233333,50.516667
Ichtegem,Bélgica,3,51.1
Ieper,Bélgica,2.883333,50.85
Incourt,Bélgica,4.783333,50.7
Ingelmunster,Bélgica,3.25,50.916667
Ittre,Bélgica,4.266667,50.65
Izegem,Bélgica,3.2,50.916667
Jabbeke,Bélgica,3.083333,51.183333
Jalhay,Bélgica,5.966667,50.566667
Jodoigne,Bélgica,4.866667,50.716667
Juprelle,Bélgica,5.533333,50.716667
Jurbise,Bélgica,3.933333,50.533333
Kalmthout,Bélgica,4.466667,51.383333
Kampenhout,Bélgica,4.55,50.95
Kapellen,Bélgica,4.433333,51.316667
Kapelle-Op-Den-Bos,Bélgica,4.366667,51.016667
Kaprijke,Bélgica,3.6,51.216667
Kasterlee,Bélgica,4.95,51.25
Keerbergen,Bélgica,4.616667,51
Kinrooi,Bélgica,5.75,51.15
Knesselare,Bélgica,3.416667,51.133333
Knokke-Heist,Bélgica,3.266667,51.35
Koekelare,Bélgica,2.966667,51.083333
Koksijde,Bélgica,2.65,51.1
Kontich,Bélgica,4.45,51.133333
Kortemark,Bélgica,3.033333,51.033333
Kortenaken,Bélgica,5.066667,50.916667
Kortenberg,Bélgica,4.533333,50.883333
Kortessem,Bélgica,5.366667,50.866667
Kortrijk,Bélgica,3.266667,50.833333
Kraainem,Bélgica,4.466667,50.866667
Kruibeke,Bélgica,4.316667,51.166667
Kruishoutem,Bélgica,3.516667,50.9
Kuurne,Bélgica,3.283333,50.85
Laarne,Bélgica,3.85,51.033333
La Bruyere,Bélgica,4.583333,50.283333
La Hulpe,Bélgica,4.483333,50.733333
La Louviere,Bélgica,4.183333,50.466667
Lanaken,Bélgica,5.65,50.883333
Landen,Bélgica,5.083333,50.75
La Roche-En-Ardenne,Bélgica,5.583333,50.183333
Lebbeke,Bélgica,4.133333,51
Ledegem,Bélgica,3.116667,50.85
Lede,Bélgica,3.983333,50.966667
Leglise,Bélgica,5.533333,49.8
Lendelede,Bélgica,3.233333,50.883333
Lennik,Bélgica,4.15,50.8
Lens,Bélgica,3.9,50.55
Leopoldsburg,Bélgica,5.25,51.116667
Lessines,Bélgica,3.833333,50.716667
Leuven,Bélgica,4.7,50.883333
Libin,Bélgica,5.25,49.983333
Lichtervelde,Bélgica,3.15,51.033333
Liedekerke,Bélgica,4.083333,50.866667
Liege,Bélgica,5.566667,50.633333
Lierneux,Bélgica,5.8,50.283333
Lille,Bélgica,4.833333,51.233333
Limbourg,Bélgica,5.933333,50.616667
Lincent,Bélgica,5.033333,50.716667
Linkebeek,Bélgica,4.333333,50.766667
Lint,Bélgica,4.5,51.133333
Lobbes,Bélgica,4.25,50.35
Lochristi,Bélgica,3.833333,51.1
Lokeren,Bélgica,3.983333,51.1
Lommel,Bélgica,5.3,51.233333
Londerzeel,Bélgica,4.3,51
Lontzen,Bélgica,6,50.683333
Lovendegem,Bélgica,3.6,51.1
Lubbeek,Bélgica,4.833333,50.883333
Lummen,Bélgica,5.2,50.983333
Maaseik,Bélgica,5.8,51.1
Maasmechelen,Bélgica,5.666667,50.816667
Machelen,Bélgica,4.433333,50.916667
Maldegem,Bélgica,3.45,51.216667
Malmedy,Bélgica,6.033333,50.416667
Manage,Bélgica,4.216667,50.5
Manhay,Bélgica,5.666667,50.3
Marche-En-Famenne,Bélgica,5.333333,50.2
Marchin,Bélgica,5.233333,50.466667
Martelange,Bélgica,5.733333,49.833333
Mechelen,Bélgica,4.466667,51.033333
Meerhout,Bélgica,5.083333,51.133333
Meise,Bélgica,4.333333,50.933333
Meix-Devant-Virton,Bélgica,5.483333,49.6
Melle,Bélgica,3.8,51
Menen,Bélgica,3.116667,50.8
Merbes-Le-Chateau,Bélgica,4.15,50.316667
Merchtem,Bélgica,4.233333,50.966667
Merelbeke,Bélgica,3.75,51
Merksplas,Bélgica,4.866667,51.366667
Mesen,Bélgica,2.9,50.766667
Messancy,Bélgica,5.816667,49.6
Mettet,Bélgica,4.666667,50.316667
Meulebeke,Bélgica,3.283333,50.95
Middelkerke,Bélgica,2.816667,51.183333
Modave,Bélgica,5.3,50.45
Moerbeke,Bélgica,3.933333,51.166667
Mol,Bélgica,5.1,51.183333
Momignies,Bélgica,4.166667,50.033333
Mons,Bélgica,3.933333,50.45
Mont-Saint-Guibert,Bélgica,4.616667,50.633333
Moorslede,Bélgica,3.066667,50.883333
Morlanwelz,Bélgica,4.233333,50.45
Mortsel,Bélgica,4.466667,51.166667
Mouscron,Bélgica,3.216667,50.733333
Musson,Bélgica,5.7,49.566667
Namur,Bélgica,4.866667,50.466667
Nandrin,Bélgica,5.416667,50.5
Nassogne,Bélgica,5.35,50.133333
Nazareth,Bélgica,3.6,50.966667
Neerpelt,Bélgica,5.416667,51.216667
Neufchateau,Bélgica,5.433333,49.833333
Nevele,Bélgica,3.55,51.033333
Niel,Bélgica,4.333333,51.116667
Nieuwerkerken,Bélgica,5.183333,50.866667
Nieuwpoort,Bélgica,2.75,51.133333
Nijlen,Bélgica,4.65,51.166667
Ninove,Bélgica,4.016667,50.833333
Nivelles,Bélgica,4.333333,50.6
Ohey,Bélgica,5.133333,50.433333
Olen,Bélgica,4.85,51.15
Olne,Bélgica,5.75,50.583333
Onhaye,Bélgica,4.833333,50.25
Oosterzele,Bélgica,3.8,50.95
Oostkamp,Bélgica,3.233333,51.15
Oostrozebeke,Bélgica,3.333333,50.916667
Opglabbeek,Bélgica,5.583333,51.05
Opwijk,Bélgica,4.183333,50.966667
Oreye,Bélgica,5.366667,50.733333
Ostend,Bélgica,2.916667,51.216667
Oudenaarde,Bélgica,3.6,50.85
Oudenburg,Bélgica,3,51.183333
Oud-Heverlee,Bélgica,4.666667,50.833333
Oud-Turnhout,Bélgica,4.983333,51.316667
Ouffet,Bélgica,5.466667,50.433333
Oupeye,Bélgica,5.65,50.7
Overijse,Bélgica,4.533333,50.766667
Overpelt,Bélgica,5.416667,51.216667
Paliseul,Bélgica,5.133333,49.9
Pecq,Bélgica,3.333333,50.683333
Peer,Bélgica,5.466667,51.133333
Pepingen,Bélgica,4.15,50.75
Pepinster,Bélgica,5.816667,50.566667
Peruwelz,Bélgica,3.583333,50.516667
Perwez,Bélgica,4.816667,50.616667
Philippeville,Bélgica,4.533333,50.2
Pittem,Bélgica,3.266667,51
Plombieres,Bélgica,5.95,50.733333
Pont-A-Celles,Bélgica,4.35,50.5
Poperinge,Bélgica,2.716667,50.85
Profondeville,Bélgica,4.866667,50.383333
Putte,Bélgica,4.633333,51.066667
Puurs,Bélgica,4.283333,51.083333
Quaregnon,Bélgica,3.85,50.433333
Quievrain,Bélgica,3.683333,50.4
Raeren,Bélgica,6.116667,50.683333
Ranst,Bélgica,4.55,51.2
Ravels,Bélgica,5,51.366667
Remicourt,Bélgica,5.333333,50.683333
Rendeux,Bélgica,5.5,50.233333
Retie,Bélgica,5.066667,51.266667
Riemst,Bélgica,5.6,50.8
Rijkevorsel,Bélgica,4.766667,51.35
Rixensart,Bélgica,4.533333,50.716667
Rochefort,Bélgica,5.216667,50.166667
Roeselare,Bélgica,3.133333,50.95
Ronse,Bélgica,3.6,50.75
Rotselaar,Bélgica,4.716667,50.95
Rouvroy,Bélgica,5.5,49.533333
Ruiselede,Bélgica,3.4,51.05
Rumes,Bélgica,3.3,50.55
Rumst,Bélgica,4.416667,51.083333
Sainte-Ode,Bélgica,5.533333,50.083333
Saint-Ghislain,Bélgica,3.816667,50.45
Saint-Hubert,Bélgica,5.383333,50.016667
Saint-Leger,Bélgica,5.65,49.616667
Saint-Nicolas,Bélgica,5.533333,50.633333
Schelle,Bélgica,4.333333,51.133333
Schilde,Bélgica,4.566667,51.233333
Schoten,Bélgica,4.5,51.25
Seneffe,Bélgica,4.25,50.516667
Seraing,Bélgica,5.483333,50.6
Silly,Bélgica,3.916667,50.65
Sint-Amands,Bélgica,4.2,51.05
Sint-Genesius-Rode,Bélgica,4.35,50.75
Sint-Gillis-Waas,Bélgica,4.133333,51.216667
Sint-Katelijne-Waver,Bélgica,4.533333,51.066667
Sint-Laureins,Bélgica,3.516667,51.25
Sint-Lievens-Houtem,Bélgica,3.85,50.916667
Sint-Martens-Latem,Bélgica,3.633333,51.016667
Sint-Niklaas,Bélgica,4.133333,51.166667
Sint-Pieters-Leeuw,Bélgica,4.233333,50.783333
Sint-Truiden,Bélgica,5.2,50.8
Soignies,Bélgica,4.066667,50.583333
Sombreffe,Bélgica,4.6,50.516667
Somme-Leuze,Bélgica,5.366667,50.333333
Soumagne,Bélgica,5.75,50.616667
Spa,Bélgica,5.866667,50.5
Sprimont,Bélgica,5.666667,50.5
Stabroek,Bélgica,4.366667,51.333333
Staden,Bélgica,3.016667,50.983333
Stavelot,Bélgica,5.933333,50.383333
Steenokkerzeel,Bélgica,4.516667,50.916667
Stekene,Bélgica,4.033333,51.2
Stoumont,Bélgica,5.8,50.416667
Tellin,Bélgica,5.216667,50.083333
Temse,Bélgica,4.216667,51.133333
Tenneville,Bélgica,5.533333,50.1
Ternat,Bélgica,4.183333,50.866667
Tervuren,Bélgica,4.516667,50.816667
Tessenderlo,Bélgica,5.083333,51.066667
Theux,Bélgica,5.816667,50.533333
Thuin,Bélgica,4.283333,50.333333
Tielt,Bélgica,3.316667,51
Tienen,Bélgica,4.95,50.8
Tinlot,Bélgica,5.366667,50.483333
Tintigny,Bélgica,5.516667,49.683333
Tongeren,Bélgica,5.466667,50.783333
Torhout,Bélgica,3.1,51.066667
Tournai,Bélgica,3.383333,50.6
Tremelo,Bélgica,4.7,50.983333
Trooz,Bélgica,5.683333,50.566667
Tubize,Bélgica,4.2,50.683333
Turnhout,Bélgica,4.95,51.316667
Vaux-Sur-Sure,Bélgica,5.583333,49.916667
Verlaine,Bélgica,5.316667,50.6
Verviers,Bélgica,5.866667,50.583333
Veurne,Bélgica,2.666667,51.066667
Vielsalm,Bélgica,5.918611,50.284722
Villers-La-Ville,Bélgica,4.533333,50.583333
Villers-Le-Bouillet,Bélgica,5.266667,50.583333
Vilvoorde,Bélgica,4.433333,50.933333
Virton,Bélgica,5.533333,49.566667
Vise,Bélgica,5.7,50.733333
Vorselaar,Bélgica,4.766667,51.2
Vosselaar,Bélgica,4.883333,51.316667
Waarschoot,Bélgica,3.6,51.15
Waasmunster,Bélgica,4.083333,51.1
Wachtebeke,Bélgica,3.866667,51.166667
Waimes,Bélgica,6.116667,50.416667
Walcourt,Bélgica,4.416667,50.25
Walhain,Bélgica,4.7,50.616667
Wanze,Bélgica,5.216667,50.533333
Waregem,Bélgica,3.416667,50.883333
Waremme,Bélgica,5.25,50.683333
Wasseiges,Bélgica,5,50.616667
Waterloo,Bélgica,4.383333,50.716667
Wavre,Bélgica,4.616667,50.716667
Welkenraedt,Bélgica,5.966667,50.65
Wellen,Bélgica,5.316667,50.85
Wellin,Bélgica,5.116667,50.083333
Wemmel,Bélgica,4.3,50.916667
Wervik,Bélgica,3.033333,50.783333
Westerlo,Bélgica,4.916667,51.083333
Wetteren,Bélgica,3.883333,51
Wevelgem,Bélgica,3.166667,50.8
Wezembeek-Oppem,Bélgica,4.483333,50.85
Wichelen,Bélgica,3.983333,51
Wielsbeke,Bélgica,3.366667,50.9
Wijnegem,Bélgica,4.533333,51.233333
Willebroek,Bélgica,4.366667,51.066667
Wingene,Bélgica,3.266667,51.066667
Wommelgem,Bélgica,4.516667,51.2
Wuustwezel,Bélgica,4.6,51.383333
Yvoir,Bélgica,4.883333,50.333333
Zandhoven,Bélgica,4.65,51.216667
Zaventem,Bélgica,4.466667,50.883333
Zedelgem,Bélgica,3.133333,51.15
Zele,Bélgica,4.033333,51.066667
Zelzate,Bélgica,3.816667,51.2
Zemst,Bélgica,4.466667,50.983333
Zingem,Bélgica,3.65,50.9
Zoersel,Bélgica,4.7,51.266667
Zomergem,Bélgica,3.55,51.116667
Zonhoven,Bélgica,5.35,50.983333
Zonnebeke,Bélgica,2.983333,50.866667
Zottegem,Bélgica,3.8,50.866667
Zoutleeuw,Bélgica,5.1,50.833333
Zuienkerke,Bélgica,3.166667,51.266667
Zulte,Bélgica,3.433333,50.916667
Zutendaal,Bélgica,5.566667,50.933333
Zwevegem,Bélgica,3.333333,50.8
Zwijndrecht,Bélgica,4.333333,51.216667
Banfora,Burkina Faso,-4.7666667,10.6333333
Batie,Burkina Faso,-2.9166667,9.8833333
Bobo Dioulasso,Burkina Faso,-4.3,11.2
Bogande,Burkina Faso,-0.1436111,12.9713889
Boromo,Burkina Faso,-2.9333333,11.75
Boulsa,Burkina Faso,-0.5758333,12.6675
Bousse,Burkina Faso,-3.3833333,13.1
Dano,Burkina Faso,-3.0666667,11.15
Dedougou,Burkina Faso,-3.4666667,12.4666667
Diapaga,Burkina Faso,1.7888889,12.0708333
Diebougou,Burkina Faso,-3.25,10.9666667
Djibo,Burkina Faso,-1.6305556,14.1022222
Dori,Burkina Faso,-0.0333333,14.0333333
Gaoua,Burkina Faso,-3.2508333,10.2991667
Garango,Burkina Faso,-0.5505556,11.8
Gayeri,Burkina Faso,0.4930556,12.6497222
Gorom-Gorom,Burkina Faso,-0.2361111,14.4438889
Gouloure,Burkina Faso,-1.9288889,12.2305556
Gourcy,Burkina Faso,-2.35,13.2166667
Hounde,Burkina Faso,-3.5166667,11.5
Kaya,Burkina Faso,-1.0844444,13.0916667
Kokologo,Burkina Faso,-1.8855556,12.1897222
Kombissiri,Burkina Faso,-1.3375,12.0655556
Kongoussi,Burkina Faso,-1.5347222,13.3258333
Koudougou,Burkina Faso,-2.3666667,12.25
Koupela,Burkina Faso,-0.3516667,12.1794444
Leo,Burkina Faso,-2.1,11.1
Manga,Burkina Faso,-1.0730556,11.6636111
Nouna,Burkina Faso,-3.8666667,12.7333333
Orodara,Burkina Faso,-4.9341667,10.9491667
Ouagadougou,Burkina Faso,-1.5247222,12.3702778
Ouahigouya,Burkina Faso,-2.4166667,13.5833333
Ouargaye,Burkina Faso,0.0572222,11.5033333
Pitmoaga,Burkina Faso,-1.8766667,12.2397222
Po,Burkina Faso,-1.145,11.1697222
Reo,Burkina Faso,-2.4666667,12.3166667
Sapouy,Burkina Faso,-1.7736111,11.5544444
Sindou,Burkina Faso,-5.1666667,10.6666667
Solenzo,Burkina Faso,-4.0833333,12.1833333
Tenkodogo,Burkina Faso,-0.3697222,11.78
Toma,Burkina Faso,-4.4166667,12.65
Tougan,Burkina Faso,-3.0666667,13.0666667
Yako,Burkina Faso,-2.2666667,12.9666667
Ziniare,Burkina Faso,-1.2983333,12.5822222
Zorgo,Burkina Faso,-0.6158333,12.2488889
Ahtopol,Bulgaria,27.95,42.1
Ajtos,Bulgaria,27.25,42.7
Alfatar,Bulgaria,27.2833333,43.95
Antonovo,Bulgaria,26.1666667,43.15
Ardino,Bulgaria,25.1333333,41.5833333
Asenovgrad,Bulgaria,24.8666667,42.0166667
Balgarovo,Bulgaria,27.3,42.6166667
Bankja,Bulgaria,23.1333333,42.7
Bansko,Bulgaria,23.5,41.8394444
Batak,Bulgaria,24.2166667,41.95
Batanovci,Bulgaria,22.9505556,42.5997222
Belene,Bulgaria,25.1166667,43.65
Belica,Bulgaria,23.5725,41.9569444
Belogradcik,Bulgaria,22.6836111,43.6272222
Beloslav,Bulgaria,27.7,43.1833333
Belovo,Bulgaria,24.0166667,42.2166667
Berkovica,Bulgaria,23.1258333,43.2361111
Bjala,Bulgaria,25.7333333,43.45
Bjala,Bulgaria,27.8833333,42.8833333
Blagoevgrad,Bulgaria,23.1,42.0166667
Bobosevo,Bulgaria,23.0163889,42.1597222
Bobovdol,Bulgaria,23.0172222,42.3697222
Boljarovo,Bulgaria,26.8166667,42.15
Borovo,Bulgaria,25.8,43.5
Botevgrad,Bulgaria,23.7833333,42.9
Bracigovo,Bulgaria,24.3666667,42.0166667
Bregovo,Bulgaria,22.6425,44.1516667
Breznik,Bulgaria,22.8980556,42.7413889
Brezovo,Bulgaria,25.0833333,42.35
Buhovo,Bulgaria,23.5666667,42.7666667
Burgas,Bulgaria,27.4666667,42.5
Carevo,Bulgaria,27.85,42.1666667
Cepelare,Bulgaria,24.6833333,41.7333333
Cirpan,Bulgaria,25.3333333,42.2
Dalgopol,Bulgaria,27.35,43.05
Debelec,Bulgaria,25.6166667,43.0333333
Devin,Bulgaria,24.4,41.7333333
Dimitrovgrad,Bulgaria,25.6,42.05
Dimovo,Bulgaria,22.7269444,43.7416667
Dobric,Bulgaria,27.8333333,43.5666667
Dolna Banja,Bulgaria,23.7666667,42.3
Dolna Mitropolija,Bulgaria,24.5333333,43.4666667
Dolni Dabnik,Bulgaria,24.4333333,43.4
Dospat,Bulgaria,24.1666667,41.65
Dragoman,Bulgaria,22.9316667,42.9188889
Drjanovo,Bulgaria,25.4922222,42.9827778
Dulovo,Bulgaria,27.15,43.8166667
Dupnica,Bulgaria,23.1166667,42.2666667
Dve Mogili,Bulgaria,25.8666667,43.6
Elena,Bulgaria,25.8833333,42.9333333
Elhovo,Bulgaria,26.5666667,42.1666667
Elin Pelin,Bulgaria,23.6,42.6666667
Etropole,Bulgaria,24.0,42.8333333
Gabrovo,Bulgaria,25.3341667,42.8747222
Galabovo,Bulgaria,25.85,42.1333333
Godec,Bulgaria,23.0441667,43.015
Gramada,Bulgaria,22.6586111,43.8344444
Guljanci,Bulgaria,24.7,43.6333333
Gurkovo,Bulgaria,25.7333333,42.6666667
Gurkovo,Bulgaria,25.8,42.6666667
Harmanli,Bulgaria,25.9,41.9333333
Haskovo,Bulgaria,25.5694444,41.9402778
Ihtiman,Bulgaria,23.8166667,42.4333333
Iskar,Bulgaria,27.4833333,43.3833333
Isperih,Bulgaria,26.8333333,43.7166667
Ivajlovgrad,Bulgaria,26.1333333,41.5333333
Jablanica,Bulgaria,24.1127778,43.0313889
Jakoruda,Bulgaria,23.6841667,42.0252778
Jambol,Bulgaria,26.5,42.4833333
Kalofer,Bulgaria,24.9833333,42.6166667
Kameno,Bulgaria,27.3,42.5666667
Kaolinovo,Bulgaria,27.1166667,43.6166667
Karlovo,Bulgaria,24.8,42.6333333
Karnobat,Bulgaria,26.9833333,42.65
Kaspican,Bulgaria,27.1833333,43.3
Kavarna,Bulgaria,28.3333333,43.4333333
Kazanlak,Bulgaria,25.4,42.6166667
Kermen,Bulgaria,26.25,42.5
Kilifarevo,Bulgaria,25.6333333,42.9833333
Kjustendil,Bulgaria,22.6911111,42.2838889
Klisura,Bulgaria,24.45,42.7
Kneza,Bulgaria,24.0833333,43.5
Kocerinovo,Bulgaria,23.0666667,42.0833333
Kojnare,Bulgaria,24.1333333,43.35
Koprivstica,Bulgaria,24.35,42.6333333
Kostenec,Bulgaria,23.8166667,42.2666667
Kostinbrod,Bulgaria,23.2166667,42.8166667
Kotel,Bulgaria,26.45,42.8833333
Kozloduj,Bulgaria,23.7333333,43.7833333
Kresna,Bulgaria,23.15,41.7333333
Kresna,Bulgaria,23.1833333,41.8
Kricim,Bulgaria,24.4666667,42.05
Krivodol,Bulgaria,23.4844444,43.3744444
Krumovgrad,Bulgaria,25.65,41.4666667
Kubrat,Bulgaria,26.5,43.8
Kula,Bulgaria,22.5213889,43.8877778
Laki,Bulgaria,24.8166667,41.85
Letnica,Bulgaria,25.0733333,43.3116667
Levski,Bulgaria,25.1333333,43.3666667
Ljaskovec,Bulgaria,25.7283333,43.1111111
Ljubimec,Bulgaria,26.0833333,41.8333333
Lom,Bulgaria,23.2361111,43.8138889
Lovec,Bulgaria,24.7166667,43.1333333
Loznica,Bulgaria,27.9166667,43.9666667
Lukovit,Bulgaria,24.1666667,43.2
Madan,Bulgaria,24.95,41.5
Magliz,Bulgaria,25.55,42.6
Malko Tarnovo,Bulgaria,27.5333333,41.9833333
Melnik,Bulgaria,23.4,41.5166667
Mericleri,Bulgaria,25.5,42.1333333
Mezdra,Bulgaria,23.7,43.15
Momcilgrad,Bulgaria,25.4166667,41.5333333
Montana,Bulgaria,23.225,43.4125
Nedelino,Bulgaria,25.0833333,41.45
Nesebar,Bulgaria,27.7333333,42.65
Nikolaevo,Bulgaria,25.9833333,43.3166667
Nikopol,Bulgaria,24.9,43.7
Nova Zagora,Bulgaria,26.0166667,42.4833333
Novi Iskar,Bulgaria,23.35,42.8
Novi Pazar,Bulgaria,27.2,43.35
Obzor,Bulgaria,27.8833333,42.8166667
Omurtag,Bulgaria,26.4166667,43.1
Opaka,Bulgaria,26.1666667,43.45
Orjahovo,Bulgaria,23.9666667,43.7333333
Panagjuriste,Bulgaria,24.1833333,42.5
Pavlikeni,Bulgaria,25.3219444,43.2427778
Pazardzik,Bulgaria,24.3333333,42.2
Pernik,Bulgaria,23.0333333,42.6
Perustica,Bulgaria,24.55,42.05
Pestera,Bulgaria,24.3,42.0333333
Petric,Bulgaria,23.2166667,41.4
Pirdop,Bulgaria,24.1833333,42.7
Plackovci,Bulgaria,25.4666667,42.8166667
Pleven,Bulgaria,24.6166667,43.4166667
Pliska,Bulgaria,27.1166667,43.3666667
Plovdiv,Bulgaria,24.75,42.15
Pomorie,Bulgaria,27.65,42.55
Popovo,Bulgaria,26.2333333,43.35
Pordim,Bulgaria,24.85,43.3833333
Pravec,Bulgaria,23.9166667,42.8833333
Primorsko,Bulgaria,27.7666667,42.2666667
Provadija,Bulgaria,27.4333333,43.1833333
Radnevo,Bulgaria,25.9333333,42.3
Radomir,Bulgaria,22.9577778,42.5444444
Rakitovo,Bulgaria,24.0833333,41.9833333
Rakovski,Bulgaria,24.9666667,42.3
Razgrad,Bulgaria,26.5166667,43.5333333
Razlog,Bulgaria,23.4791667,41.8902778
Rila,Bulgaria,23.1333333,42.1333333
Roman,Bulgaria,23.9166667,43.15
Rudozem,Bulgaria,24.85,41.4833333
Ruse,Bulgaria,25.9708333,43.8563889
Sabla,Bulgaria,28.5333333,43.5333333
Sadovo,Bulgaria,24.9333333,42.1333333
Saedinenie,Bulgaria,24.55,42.2666667
Samokov,Bulgaria,23.55,42.3333333
Sandanski,Bulgaria,23.2833333,41.5666667
Senovo,Bulgaria,26.3666667,43.65
Septemvri,Bulgaria,24.1,42.2166667
Sevlievo,Bulgaria,25.1136111,43.0258333
Silistra,Bulgaria,27.2666667,44.1166667
Simeonovgrad,Bulgaria,25.8333333,42.0333333
Simitli,Bulgaria,23.1166667,41.8833333
Sipka,Bulgaria,25.3333333,42.7166667
Slavjanovo,Bulgaria,24.8666667,43.4666667
Sliven,Bulgaria,26.3291667,42.6858333
Smoljan,Bulgaria,24.6919444,41.5852778
Sofia,Bulgaria,23.3166667,42.6833333
Sopot,Bulgaria,24.4166667,43.0166667
Sozopol,Bulgaria,27.7,42.4166667
Sredec,Bulgaria,27.1941667,42.3488889
Stara Zagora,Bulgaria,25.6419444,42.4327778
Straldza,Bulgaria,26.6833333,42.6
Strazica,Bulgaria,25.9666667,43.2333333
Strelca,Bulgaria,24.3166667,42.5
Suhindol,Bulgaria,25.1811111,43.1916667
Sumen,Bulgaria,26.9291667,43.2766667
Sungurlare,Bulgaria,26.7833333,42.7666667
Suvorovo,Bulgaria,27.6,43.3333333
Svilengrad,Bulgaria,26.2,41.7666667
Svistov,Bulgaria,25.3538889,43.6230556
Svoge,Bulgaria,23.35,42.9666667
Tervel,Bulgaria,27.4,43.75
Teteven,Bulgaria,24.2666667,42.9166667
Topolovgrad,Bulgaria,26.3333333,42.0833333
Tran,Bulgaria,22.6516667,42.8352778
Trastenik,Bulgaria,24.4666667,43.5166667
Trjavna,Bulgaria,25.5,42.8666667
Trojan,Bulgaria,24.7166667,42.8833333
Tutrakan,Bulgaria,26.6166667,44.05
Tvardica,Bulgaria,25.9,42.7
Ugarcin,Bulgaria,24.4166667,43.1
Varna,Bulgaria,27.9166667,43.2166667
Veliki Preslav,Bulgaria,26.8166667,43.1666667
Velingrad,Bulgaria,24.0,42.0166667
Vetovo,Bulgaria,26.2666667,43.7
Vidin,Bulgaria,22.8725,43.99
Vraca,Bulgaria,23.5625,43.21
Zavet,Bulgaria,26.6666667,43.7666667
Zemen,Bulgaria,22.7491667,42.4788889
Zlatarica,Bulgaria,25.9,43.05
Zlatica,Bulgaria,24.1333333,42.7166667
Zlatograd,Bulgaria,25.1,41.3833333
Manama,Bahréin,50.5830556,26.2361111
Sitrah,Bahréin,50.6205556,26.1547222
Bubanza,Burundi,29.3944444,-3.0833333
Bujumbura,Burundi,29.36,-3.3761111
Bururi,Burundi,29.6166667,-3.9511111
Cankuzo,Burundi,30.5527778,-3.2194444
Cibitoke,Burundi,29.1236111,-2.8861111
Gitega,Burundi,29.9333333,-3.425
Karuzi,Burundi,30.1647222,-3.1013889
Kayanza,Burundi,29.6222222,-2.9222222
Kirundo,Burundi,30.0972222,-2.5847222
Makamba,Burundi,29.805,-4.1347222
Muramvya,Burundi,29.6166667,-3.2680556
Muyinga,Burundi,30.3361111,-2.8494444
Mwaro,Burundi,29.7027778,-3.5263889
Ngozi,Burundi,29.8277778,-2.9083333
Rumonge,Burundi,29.4388889,-3.9722222
Rutana,Burundi,29.9936111,-3.9191667
Ruyigi,Burundi,30.2486111,-3.4763889
Abomey,Benin,1.9833333,7.1833333
Abomey-Calavi,Benin,2.35,6.45
Allada,Benin,2.15,6.65
Aplahoue,Benin,1.6833333,6.9333333
Athieme,Benin,1.6666667,6.5833333
Banikoara,Benin,2.4333333,11.3
Bassila,Benin,1.6666667,9.0166667
Bembereke,Benin,2.6652778,10.2288889
Beterou,Benin,2.2666667,9.2
Bohicon,Benin,2.0666667,7.2
Come,Benin,1.8833333,6.4
Cotonou,Benin,2.4333333,6.35
Cove,Benin,2.3,7.2333333
Djougou,Benin,1.6669444,9.705
Dogbo,Benin,1.7833333,6.8166667
Kandi,Benin,2.9386111,11.1341667
Ketou,Benin,2.6,7.3666667
Lokossa,Benin,1.7166667,6.6333333
Malanville,Benin,3.3858333,11.8613889
Natitingou,Benin,1.375,10.3066667
Nikki,Benin,3.2044444,9.9338889
Ouidah,Benin,2.0833333,6.3666667
Parakou,Benin,2.6166667,9.35
Pobe,Benin,2.6833333,6.9666667
Sakete,Benin,2.6666667,6.7166667
Savalou,Benin,1.9666667,7.9333333
Save,Benin,2.4833333,8.0333333
Tchaourou,Benin,2.6,8.8833333
Hamilton,Bermudas,-64.7838889,32.2941667
Saint George,Bermudas,-64.6780556,32.3816667
Abapo,Bolivia,-63.4666667,-18.8333333
Achacachi,Bolivia,-68.6833333,-16.05
Aiquile,Bolivia,-65.1666667,-18.1666667
Arani,Bolivia,-65.7666667,-17.5666667
Ascension,Bolivia,-63.0833333,-15.7
Atocha,Bolivia,-66.2333333,-20.9333333
Bermejo,Bolivia,-64.3666667,-22.65
Betanzos,Bolivia,-65.4533333,-19.5505556
Boyuibe,Bolivia,-63.2833333,-20.4166667
Buena Vista,Bolivia,-63.6666667,-17.45
Camargo,Bolivia,-65.2166667,-20.65
Camiri,Bolivia,-63.5166667,-20.05
Capinota,Bolivia,-66.2333333,-17.7166667
Caracollo,Bolivia,-67.1666667,-17.65
Caranavi,Bolivia,-67.55,-15.8166667
Challapata,Bolivia,-66.7666667,-18.9
Charagua,Bolivia,-63.2166667,-19.8
Chimore,Bolivia,-65.1333333,-16.9833333
Chulumani,Bolivia,-67.5166667,-16.4
Cliza,Bolivia,-65.9333333,-17.6
Cobija,Bolivia,-68.7333333,-11.0333333
Cochabamba,Bolivia,-66.15,-17.3833333
Colomi,Bolivia,-65.8666667,-17.35
Colquechaca,Bolivia,-66.0166667,-18.6666667
Colquiri,Bolivia,-67.1333333,-17.4166667
Comarapa,Bolivia,-64.4833333,-17.9
Concepcion,Bolivia,-60.9,-16.4333333
Copacabana,Bolivia,-69.0833333,-16.15
Coripata,Bolivia,-67.6,-16.3
Coroico,Bolivia,-67.7333333,-16.1833333
Cotoca,Bolivia,-62.9833333,-17.75
El Carmen,Bolivia,-63.2166667,-17.85
El Torno,Bolivia,-63.3833333,-17.9833333
Entre Rios,Bolivia,-64.2,-21.5333333
Eucaliptus,Bolivia,-67.5166667,-17.5833333
Guanay,Bolivia,-67.8833333,-15.4833333
Guayaramerin,Bolivia,-65.3833333,-10.8
Huanuni,Bolivia,-66.85,-18.2666667
Irpa Irpa,Bolivia,-66.2666667,-17.7166667
Jorochito,Bolivia,-63.4333333,-18.05
La Belgica,Bolivia,-63.2166667,-17.55
La Guardia,Bolivia,-63.3333333,-17.9
Lahuachaca,Bolivia,-67.6666667,-17.3666667
La Paz,Bolivia,-68.15,-16.5
Limoncito,Bolivia,-63.4,-18.0166667
Llallagua,Bolivia,-66.6333333,-18.4166667
Los Negros,Bolivia,-63.4333333,-17.7333333
Machacamarca,Bolivia,-67.0333333,-18.1666667
Mairana,Bolivia,-63.9333333,-18.1166667
Mapiri,Bolivia,-68.1666667,-15.25
Mineros,Bolivia,-63.2333333,-17.1166667
Mizque,Bolivia,-65.3166667,-17.9333333
Monteagudo,Bolivia,-63.9833333,-19.8166667
Montero,Bolivia,-63.25,-17.3333333
Oruro,Bolivia,-67.15,-17.9833333
Padilla,Bolivia,-64.3,-19.3
Pailon,Bolivia,-62.75,-17.65
Patacamaya,Bolivia,-67.9166667,-17.2333333
Poopo,Bolivia,-66.9666667,-18.3666667
Portachuelo,Bolivia,-63.4,-17.35
Potosi,Bolivia,-65.7530556,-19.5836111
Puerto Pailas,Bolivia,-62.8,-17.65
Puerto Quijarro,Bolivia,-57.7666667,-17.7833333
Puerto Suarez,Bolivia,-57.8,-18.95
Punata,Bolivia,-65.8333333,-17.55
Quime,Bolivia,-67.2166667,-16.9833333
Reyes,Bolivia,-67.3833333,-14.3166667
Riberalta,Bolivia,-66.1,-10.9833333
Robore,Bolivia,-59.75,-18.3333333
Rurrenabaque,Bolivia,-67.5666667,-14.4666667
Samaipata,Bolivia,-63.8666667,-18.15
San Borja,Bolivia,-66.85,-14.8166667
San Carlos,Bolivia,-63.75,-17.4
San Ignacio,Bolivia,-60.95,-16.3666667
San Javier,Bolivia,-62.6333333,-16.3333333
San Joaquin,Bolivia,-59.55,-18.45
San Jose,Bolivia,-60.75,-17.85
San Julian,Bolivia,-62.8666667,-17.7833333
San Lorenzo,Bolivia,-64.7833333,-21.4333333
San Matias,Bolivia,-58.4,-16.3666667
San Miguel,Bolivia,-61.0166667,-16.7
San Pedro,Bolivia,-59.8166667,-18.2833333
San Rafael,Bolivia,-60.5666667,-16.75
San Ramon,Bolivia,-64.7166667,-13.2833333
San Ramon,Bolivia,-63.15,-14.4833333
Santa Barbara,Bolivia,-66.05,-20.9166667
Santa Rita,Bolivia,-63.35,-17.9666667
Santa Rosa,Bolivia,-66.8833333,-14.1666667
Santa Rosa,Bolivia,-61.8,-16.7833333
Sipe Sipe,Bolivia,-66.3833333,-17.45
Sorata,Bolivia,-68.6333333,-15.7666667
Sucre,Bolivia,-65.2591667,-19.0430556
Tarabuco,Bolivia,-64.9166667,-19.1666667
Tarata,Bolivia,-66.0166667,-17.6166667
Tarija,Bolivia,-64.75,-21.5166667
Tipuani,Bolivia,-68.0,-15.55
Totoral,Bolivia,-66.8666667,-18.5166667
Trinidad,Bolivia,-64.9,-14.8333333
Tupiza,Bolivia,-65.7166667,-21.45
Uncia,Bolivia,-66.6166667,-18.45
Urubicha,Bolivia,-62.95,-15.3833333
Uyuni,Bolivia,-66.8333333,-20.4666667
Villamontes,Bolivia,-63.5,-21.25
Villazon,Bolivia,-65.6,-22.1
Viloco,Bolivia,-67.55,-16.95
Warnes,Bolivia,-63.1666667,-17.5
Yacuiba,Bolivia,-63.6833333,-22.0333333
Abadiania,Brasil,-48.8,-16.1
Abaete,Brasil,-45.45,-19.15
Abaetetuba,Brasil,-48.9,-1.7
Abreu E Lima,Brasil,-34.883333,-7.9
Acajutiba,Brasil,-38.016667,-11.666667
Acara,Brasil,-48.183333,-1.95
Acarau,Brasil,-40.116667,-2.883333
Acari,Brasil,-36.633333,-6.516667
Acopiara,Brasil,-39.45,-6.1
Acu,Brasil,-36.9075,-5.577222
Acucena,Brasil,-42.533333,-19.066667
Adamantina,Brasil,-51.066667,-21.683333
Afogados Da Ingazeira,Brasil,-37.65,-7.75
Afonso Bezerra,Brasil,-36.509167,-5.498056
Afonso Claudio,Brasil,-41.133333,-20.083333
Afua,Brasil,-50.383333,-.166667
Agrestina,Brasil,-35.95,-8.45
Agua Branca,Brasil,-37.916667,-9.283333
Agua Branca,Brasil,-42.633333,-5.883333
Aguai,Brasil,-46.966667,-22.066667
Agua Preta,Brasil,-35.516667,-8.7
Aguas Belas,Brasil,-37.116667,-9.116667
Aguas De Lindoia,Brasil,-46.65,-22.483333
Aguas Formosas,Brasil,-40.95,-17.083333
Aguas Vermelhas,Brasil,-41.466667,-15.75
Agudos,Brasil,-49,-22.466667
Aguia Branca,Brasil,-40.733333,-18.983333
Aimores,Brasil,-41.066667,-19.5
Alagoa Grande,Brasil,-35.633333,-7.05
Alagoa Nova,Brasil,-35.766667,-7.066667
Alagoinha,Brasil,-35.55,-6.933333
Alagoinhas,Brasil,-38.433333,-12.116667
Alcantara,Brasil,-44.4,-2.4
Alegre,Brasil,-41.533333,-20.766667
Alegrete,Brasil,-55.766667,-29.766667
Alem Paraiba,Brasil,-42.683333,-21.866667
Alenquer,Brasil,-54.766667,-1.933333
Alexandria,Brasil,-38.016667,-6.416667
Alfenas,Brasil,-45.95,-21.433333
Alfredo Chaves,Brasil,-40.75,-20.633333
Alhandra,Brasil,-34.9,-7.433333
Alianca,Brasil,-35.216667,-7.583333
Almeirim,Brasil,-52.566667,-1.533333
Almenara,Brasil,-40.7,-16.183333
Almirante Tamandare,Brasil,-49.316667,-25.3
Alpinopolis,Brasil,-46.383333,-20.866667
Alta Floresta,Brasil,-55.9,-9.9
Altamira,Brasil,-52.2,-3.2
Alterosa,Brasil,-46.133333,-21.25
Altinho,Brasil,-36.066667,-8.483333
Altinopolis,Brasil,-47.374444,-21.025278
Alto Araguaia,Brasil,-53.2,-17.316667
Alto Longa,Brasil,-42.2,-5.25
Altonia,Brasil,-53.9,-23.933333
Alto Paraguai,Brasil,-56.516667,-14.5
Alto Parana,Brasil,-52.366667,-23.083333
Alto Piquiri,Brasil,-53.466667,-24.016667
Altos,Brasil,-42.466667,-5.05
Alvaraes,Brasil,-64.833333,-3.2
Alvares Machado,Brasil,-51.5,-22.133333
Alvinopolis,Brasil,-43.05,-20.1
Alvorada,Brasil,-49.082222,-12.47
Amambai,Brasil,-55.216667,-23.083333
Amapa,Brasil,-50.8,2.05
Amaraji,Brasil,-35.45,-8.4
Amarante,Brasil,-42.833333,-6.233333
Amarante Do Maranhao,Brasil,-46.75,-5.6
Amargosa,Brasil,-39.6,-13.033333
America Dourada,Brasil,-41.433333,-11.466667
Americana,Brasil,-47.334444,-22.740278
Americo Brasiliense,Brasil,-48.116667,-21.716667
Amontada,Brasil,-39.833333,-3.383333
Amparo,Brasil,-46.783333,-22.7
Ampere,Brasil,-53.466667,-25.916667
Anadia,Brasil,-36.3,-9.7
Anage,Brasil,-41.133333,-14.6
Anajatuba,Brasil,-44.616667,-3.266667
Ananas,Brasil,-47.91,-6.360278
Ananindeua,Brasil,-48.383333,-1.366667
Anapolis,Brasil,-48.966667,-16.333333
Anastacio,Brasil,-55.8,-20.516667
Andira,Brasil,-50.2276,-23.0488
Andradas,Brasil,-46.566667,-22.066667
Andradina,Brasil,-51.383333,-20.9
Andrelandia,Brasil,-44.3,-21.733333
Angatuba,Brasil,-48.416667,-23.483333
Angicos,Brasil,-36.600833,-5.666389
Angra Dos Reis,Brasil,-44.3,-23
Anicuns,Brasil,-49.966667,-16.466667
Anori,Brasil,-61.633333,-3.783333
Antonina,Brasil,-48.7184,-25.4314
Aparecida,Brasil,-45.2287,-22.8418
Aparecida Do Taboado,Brasil,-51.083333,-20.083333
Apiai,Brasil,-48.844671,-24.511926
Apodi,Brasil,-37.8,-5.65
Apucarana,Brasil,-51.483333,-23.55
Aquidaba,Brasil,-37.033333,-10.283333
Aquidauana,Brasil,-55.8,-20.466667
Aquiraz,Brasil,-38.366667,-3.9
Aracaju,Brasil,-37.066667,-10.916667
Aracati,Brasil,-37.766667,-4.566667
Aracatuba,Brasil,-50.416667,-21.2
Araci,Brasil,-38.95,-11.333333
Aracoiaba,Brasil,-38.816667,-4.383333
Aracoiaba,Brasil,-35.05,-7.8
Aracoiaba Da Serra,Brasil,-47.6185,-23.5049
Aracruz,Brasil,-40.266667,-19.816667
Aracuai,Brasil,-42.066667,-16.866667
Aragarcas,Brasil,-52.25,-15.916667
Araguacu,Brasil,-49.773056,-12.894167
Araguaina,Brasil,-48.0575,-7.16
Araguari,Brasil,-48.183333,-18.633333
Araguatins,Brasil,-47.933056,-5.600278
Araioses,Brasil,-41.903611,-2.89
Arapiraca,Brasil,-36.65,-9.75
Arapongas,Brasil,-51.45,-23.383333
Araquari,Brasil,-48.7221,-26.3692
Arara,Brasil,-35.75,-6.833333
Ararangua,Brasil,-49.483333,-28.933333
Araraquara,Brasil,-48.166667,-21.783333
Araras,Brasil,-47.383333,-22.366667
Arari,Brasil,-44.783333,-3.466667
Araripe,Brasil,-40.133333,-7.2
Araripina,Brasil,-40.566667,-7.55
Araruama,Brasil,-42.333333,-22.883333
Araruna,Brasil,-35.733333,-6.533333
Araua,Brasil,-37.616667,-11.266667
Araucaria,Brasil,-49.416667,-25.583333
Araxa,Brasil,-46.916667,-19.583333
Arcos,Brasil,-45.533333,-20.283333
Arcoverde,Brasil,-36.916667,-8.416667
Areado,Brasil,-46.15,-21.35
Areal,Brasil,-43.106944,-22.228889
Areia,Brasil,-35.7,-6.966667
Areia Branca,Brasil,-37.132222,-4.953889
Areia Branca,Brasil,-37.316667,-10.766667
Arenapolis,Brasil,-56.816667,-14.433333
Ares,Brasil,-35.15,-6.183333
Arinos,Brasil,-46.066667,-15.916667
Aripuana,Brasil,-60.633333,-9.166667
Ariquemes,Brasil,-63.066667,-9.933333
Armacao Dos Buzios,Brasil,-41.883333,-22.75
Aroeiras,Brasil,-35.683333,-7.516667
Arraial Do Cabo,Brasil,-42.016667,-22.966667
Arraias,Brasil,-46.891667,-12.977222
Arroio Do Meio,Brasil,-51.95,-29.4
Arroio Dos Ratos,Brasil,-51.716667,-30.083333
Arroio Grande,Brasil,-53.083333,-32.233333
Artur Nogueira,Brasil,-47.15,-22.583333
Aruja,Brasil,-46.333333,-23.4
Assai,Brasil,-50.816667,-23.366667
Assare,Brasil,-39.866667,-6.866667
Assis,Brasil,-50.416667,-22.666667
Astolfo Dutra,Brasil,-42.866667,-21.316667
Astorga,Brasil,-51.666667,-23.216667
Atalaia,Brasil,-36.033333,-9.516667
Atibaia,Brasil,-46.562222,-23.124167
Augusto Correa,Brasil,-46.666667,-1.033333
Auriflama,Brasil,-50.566667,-20.683333
Aurora,Brasil,-38.966667,-6.95
Autazes,Brasil,-59.133333,-3.583333
Avare,Brasil,-48.916667,-23.083333
Axixa Do Tocantins,Brasil,-47.595556,-5.551111
Bacabal,Brasil,-44.783333,-4.233333
Bady Bassitt,Brasil,-49.466667,-20.933333
Baependi,Brasil,-44.883333,-21.95
Bage,Brasil,-54.1,-31.333333
Baiao,Brasil,-49.683333,-2.683333
Baixa Grande,Brasil,-40.183333,-11.95
Baixo Guandu,Brasil,-41.016667,-19.516667
Balsas,Brasil,-46.033333,-7.516667
Bambui,Brasil,-45.966667,-20.016667
Bananeiras,Brasil,-35.616667,-6.75
Bandeirantes,Brasil,-50.35,-23.1
Barao De Cocais,Brasil,-43.466667,-19.933333
Barao De Melgaco,Brasil,-55.966667,-16.216667
Barauna,Brasil,-37.616667,-5.083333
Barbacena,Brasil,-43.766667,-21.233333
Barbalha,Brasil,-39.283333,-7.316667
Barbosa Ferraz,Brasil,-52.05,-24.066667
Barcarena,Brasil,-48.666667,-1.5
Barcelos,Brasil,-62.966667,-1
Bariri,Brasil,-48.733333,-22.066667
Barra,Brasil,-43.166667,-11.083333
Barra Bonita,Brasil,-48.533333,-22.483333
Barra Da Estiva,Brasil,-41.316667,-13.633333
Barra De Sao Francisco,Brasil,-40.866667,-18.75
Barra Do Bugres,Brasil,-57.183333,-15.083333
Barra Do Corda,Brasil,-45.25,-5.5
Barra Do Garcas,Brasil,-52.25,-15.883333
Barra Do Pirai,Brasil,-43.827778,-22.466111
Barra Dos Coqueiros,Brasil,-37.05,-10.9
Barra Mansa,Brasil,-44.183333,-22.533333
Barras,Brasil,-42.3,-4.25
Barra Velha,Brasil,-48.6851,-26.6406
Barreiras,Brasil,-45,-12.133333
Barreirinha,Brasil,-57.068889,-2.793611
Barreirinhas,Brasil,-42.833333,-2.75
Barreiros,Brasil,-35.2,-8.816667
Barretos,Brasil,-48.55,-20.55
Barrinha,Brasil,-48.15,-21.2
Barro,Brasil,-38.866667,-6.716667
Barroquinha,Brasil,-41.083333,-2.983333
Barroso,Brasil,-43.966667,-21.183333
Barueri,Brasil,-46.883333,-23.516667
Bastos,Brasil,-50.716667,-21.933333
Bataipora,Brasil,-53.283333,-22.333333
Batalha,Brasil,-37.133333,-9.683333
Batalha,Brasil,-42.083333,-4.016667
Batatais,Brasil,-47.616667,-20.883333
Baturite,Brasil,-38.883333,-4.333333
Bauru,Brasil,-49.066667,-22.316667
Bayeux,Brasil,-34.933333,-7.133333
Bebedouro,Brasil,-48.466667,-20.933333
Beberibe,Brasil,-38.133333,-4.183333
Bela Cruz,Brasil,-40.183333,-3.05
Bela Vista,Brasil,-56.516667,-22.1
Bela Vista De Goias,Brasil,-48.95,-16.966667
Bela Vista Do Paraiso,Brasil,-51.2,-23
Belem,Brasil,-48.483333,-1.45
Belem,Brasil,-35.5,-6.716667
Belem De Sao Francisco,Brasil,-38.966667,-8.766667
Belford Roxo,Brasil,-43.404654,-22.761995
Belmonte,Brasil,-38.9,-15.85
Belo Horizonte,Brasil,-43.933333,-19.916667
Belo Jardim,Brasil,-36.433333,-8.333333
Belo Oriente,Brasil,-42.466667,-19.233333
Beneditinos,Brasil,-42.366667,-5.45
Benevides,Brasil,-48.25,-1.366667
Benjamin Constant,Brasil,-70.029722,-4.374444
Bento Goncalves,Brasil,-51.516667,-29.166667
Bequimao,Brasil,-44.783333,-2.433333
Bernardino De Campos,Brasil,-49.483333,-23.033333
Betim,Brasil,-44.216667,-19.966667
Bezerros,Brasil,-35.75,-8.233333
Bicas,Brasil,-43.066667,-21.716667
Biguacu,Brasil,-48.666667,-27.5
Birigui,Brasil,-50.316667,-21.3
Biritiba-Mirim,Brasil,-46.033333,-23.583333
Blumenau,Brasil,-49.0615,-26.9222
Boa Esperanca,Brasil,-40.283333,-18.55
Boa Esperanca,Brasil,-45.566667,-21.083333
Boa Esperanca Do Sul,Brasil,-48.383333,-21.983333
Boa Viagem,Brasil,-39.733333,-5.116667
Boa Vista,Brasil,-60.666667,2.816667
Boca Da Mata,Brasil,-36.25,-9.6
Boca Do Acre,Brasil,-67.383333,-8.75
Bocaiuva,Brasil,-43.816667,-17.116667
Bodoco,Brasil,-39.916667,-7.783333
Boituva,Brasil,-47.683333,-23.283333
Bom Conselho,Brasil,-36.683333,-9.166667
Bom Despacho,Brasil,-45.25,-19.716667
Bom Jardim,Brasil,-46.483333,-7.016667
Bom Jardim,Brasil,-42.416667,-22.15
Bom Jardim,Brasil,-35.583333,-7.783333
Bom Jesus,Brasil,-44.366667,-9.066667
Bom Jesus Da Lapa,Brasil,-43.416667,-13.25
Bom Jesus Do Galho,Brasil,-42.316667,-19.833333
Bom Jesus Do Itabapoana,Brasil,-41.683333,-21.133333
Bom Jesus Dos Perdoes,Brasil,-46.466667,-23.133333
Bom Sucesso,Brasil,-44.766667,-21.033333
Bonfim,Brasil,-59.95,3.083333
Bonito,Brasil,-56.466667,-21.133333
Bonito,Brasil,-35.733333,-8.483333
Boqueirao,Brasil,-36.116667,-7.483333
Boquim,Brasil,-37.616667,-11.15
Boquira,Brasil,-42.766667,-12.816667
Borba,Brasil,-59.593611,-4.388889
Borborema,Brasil,-49.066667,-21.616667
Borda Da Mata,Brasil,-46.166667,-22.266667
Botelhos,Brasil,-46.4,-21.65
Botucatu,Brasil,-48.433333,-22.866667
Braco Do Norte,Brasil,-49.183333,-28.283333
Braganca,Brasil,-46.766667,-1.05
Braganca Paulista,Brasil,-46.566667,-22.95
Brasileia,Brasil,-68.733333,-11
Brasilia,Brasil,-47.916667,-15.783333
Brasilia De Minas,Brasil,-44.430833,-16.211944
Brejinho,Brasil,-35.35,-6.183333
Brejo,Brasil,-42.783333,-3.683333
Brejo Da Madre De Deus,Brasil,-36.366667,-8.15
Brejo Santo,Brasil,-39,-7.483333
Breves,Brasil,-50.483333,-1.666667
Brodowski,Brasil,-47.666667,-20.983333
Brotas,Brasil,-48.116667,-22.283333
Brumadinho,Brasil,-44.216667,-20.133333
Brumado,Brasil,-41.666667,-14.216667
Brusque,Brasil,-48.933333,-27.1
Bueno Brandao,Brasil,-46.35,-22.45
Buerarema,Brasil,-39.316667,-14.95
Buique,Brasil,-37.15,-8.616667
Bujaru,Brasil,-48.016667,-1.516667
Buri,Brasil,-48.583333,-23.8
Buritama,Brasil,-50.133333,-21.05
Buriti Alegre,Brasil,-49.05,-18.15
Buriti Bravo,Brasil,-43.833333,-5.833333
Buriti,Brasil,-42.95,-3.916667
Buriti Dos Lopes,Brasil,-41.866667,-3.166667
Buritis,Brasil,-46.433333,-15.616667
Buritizeiro,Brasil,-44.966667,-17.35
Butia,Brasil,-51.966667,-30.116667
Caapora,Brasil,-34.9,-7.516667
Caarapo,Brasil,-54.8,-22.633333
Cabedelo,Brasil,-34.833333,-6.966667
Cabo Frio,Brasil,-42.016667,-22.883333
Cabreuva,Brasil,-47.133333,-23.3
Cabrobo,Brasil,-39.316667,-8.516667
Cacador,Brasil,-51,-26.783333
Cacapava,Brasil,-45.716667,-23.1
Cacapava Do Sul,Brasil,-53.5,-30.5
Cacequi,Brasil,-54.816667,-29.883333
Caceres,Brasil,-57.683333,-16.066667
Cachoeira,Brasil,-38.966667,-12.6
Cachoeira Do Sul,Brasil,-52.9,-30.033333
Cachoeiras De Macacu,Brasil,-42.65,-22.466667
Cachoeirinha,Brasil,-51.083333,-29.95
Cachoeirinha,Brasil,-36.233333,-8.483333
Cachoeiro De Itapemirim,Brasil,-41.1,-20.85
Cacimba De Dentro,Brasil,-35.783333,-6.65
Cacimbinhas,Brasil,-37,-9.4
Cacoal,Brasil,-61.416667,-11.5
Caconde,Brasil,-46.633333,-21.55
Cacu,Brasil,-51.066667,-18.616667
Cacule,Brasil,-42.216667,-14.5
Caete,Brasil,-43.666667,-19.9
Caetes,Brasil,-36.633333,-8.766667
Caetite,Brasil,-42.483333,-14.066667
Cafarnaum,Brasil,-41.466667,-11.7
Cafelandia,Brasil,-49.583333,-21.816667
Caiaponia,Brasil,-51.816667,-16.95
Caico,Brasil,-37.1,-6.45
Caieiras,Brasil,-46.740681,-23.36193
Cajamar,Brasil,-46.883333,-23.35
Cajati,Brasil,-48.110541,-24.728502
Cajazeiras,Brasil,-38.566667,-6.9
Cajueiro,Brasil,-36.45,-9.716667
Cajuru,Brasil,-47.3,-21.283333
Caldas Novas,Brasil,-48.633333,-17.75
Camacari,Brasil,-38.216667,-12.483333
Camamu,Brasil,-39.116667,-13.95
Camanducaia,Brasil,-46.15,-22.766667
Camapua,Brasil,-54.083333,-19.5
Camaqua,Brasil,-51.816667,-30.85
Camaragibe,Brasil,-34.966667,-8.016667
Cambara,Brasil,-50.0741,-23.0411
Cambe,Brasil,-51.25,-23.233333
Camboriu,Brasil,-48.633333,-26.983333
Cambuci,Brasil,-41.916667,-21.566667
Cambui,Brasil,-46.066667,-22.616667
Cambuquira,Brasil,-45.3,-21.85
Cameta,Brasil,-49.5,-2.25
Camocim,Brasil,-40.846111,-2.89
Camocim De Sao Felix,Brasil,-35.766667,-8.35
Campanha,Brasil,-45.4,-21.833333
Campestre,Brasil,-46.25,-21.716667
Campina Grande,Brasil,-35.883333,-7.216667
Campina Grande Do Sul,Brasil,-49.083333,-25.3
Campinas,Brasil,-47.083333,-22.9
Campina Verde,Brasil,-49.466667,-19.516667
Campo Alegre,Brasil,-36.35,-9.8
Campo Bom,Brasil,-51.05,-29.683333
Campo Do Brito,Brasil,-37.5,-10.75
Campo Formoso,Brasil,-40.333333,-10.516667
Campo Grande,Brasil,-36.5,-10.233333
Campo Grande,Brasil,-54.616667,-20.45
Campo Largo,Brasil,-49.533333,-25.433333
Campo Maior,Brasil,-42.166667,-4.816667
Campos Altos,Brasil,-46.166667,-19.683333
Campos Belos,Brasil,-46.883333,-13.05
Campos,Brasil,-41.3,-21.75
Campos Do Jordao,Brasil,-45.5792,-22.7264
Campos Gerais,Brasil,-45.766667,-21.233333
Campos Novos,Brasil,-51.2,-27.4
Campos Sales,Brasil,-40.383333,-7.066667
Campo Verde,Brasil,-54.066667,-20.416667
Cananeia,Brasil,-47.95,-25.016667
Canapi,Brasil,-37.5,-9.133333
Canarana,Brasil,-41.766667,-11.683333
